[
  {
    "name": "창덕공원",
    "lat": 37.57799,
    "lng": 126.99219,
    "address": "서울특별시 종로구 권농동 31"
  },
  {
    "name": "쌈지길(지하1층)",
    "lat": 37.57433,
    "lng": 126.98521,
    "address": "서울특별시 종로구 인사동길 44"
  },
  {
    "name": "올림픽기념국민생활관",
    "lat": 37.59036,
    "lng": 126.99885,
    "address": "서울특별시 종로구 성균관로 91"
  },
  {
    "name": "신영동 빗물저류조 내 공중화장실",
    "lat": 37.60262,
    "lng": 126.96194,
    "address": "서울특별시 종로구 신영동 123-1"
  },
  {
    "name": "흥사단",
    "lat": 37.58391,
    "lng": 127.00305,
    "address": "서울특별시 종로구 대학로 122"
  },
  {
    "name": "창신1동 주민센터",
    "lat": 37.57077,
    "lng": 127.01632,
    "address": "서울특별시 종로구 지봉로 8-6"
  },
  {
    "name": "광장시장 나들이 쉼터",
    "lat": 37.57016,
    "lng": 127.00126,
    "address": "서울특별시 종로구 종로32길 19"
  },
  {
    "name": "서울자유시민대학 화장실",
    "lat": 37.57137,
    "lng": 126.96591,
    "address": "서울특별시 종로구 송월길 52"
  },
  {
    "name": "북촌단청공방",
    "lat": 37.58304,
    "lng": 126.98933,
    "address": "서울특별시 종로구 창덕궁5길 4"
  },
  {
    "name": "유림회관(성균관)",
    "lat": 37.5858,
    "lng": 126.99574,
    "address": "서울특별시 종로구 성균관로 31"
  },
  {
    "name": "색실문양누비공방",
    "lat": 37.58241,
    "lng": 126.98586,
    "address": "서울특별시 종로구 북촌로12길 17"
  },
  {
    "name": "SK북악주유소",
    "lat": 37.60987,
    "lng": 126.9749,
    "address": "서울특별시 종로구 평창문화로 137"
  },
  {
    "name": "와룡공원(관리실옆)",
    "lat": 37.58692,
    "lng": 127.00504,
    "address": "서울특별시 종로구 혜화동 산2-13"
  },
  {
    "name": "종로4가",
    "lat": 37.57952,
    "lng": 126.99935,
    "address": "서울특별시 종로구 창경궁로 지하 81"
  },
  {
    "name": "북촌마을안내소공중화장실",
    "lat": 37.58078,
    "lng": 126.98305,
    "address": "서울특별시 종로구 북촌로5길 48"
  },
  {
    "name": "창이놀이터",
    "lat": 37.57884,
    "lng": 127.00855,
    "address": "서울특별시 종로구 창신동 622-12"
  },
  {
    "name": "부암동 주민센터화장실",
    "lat": 37.59257,
    "lng": 126.96416,
    "address": "서울특별시 종로구 창의문로 145"
  },
  {
    "name": "토포하우스",
    "lat": 37.57405,
    "lng": 126.98432,
    "address": "서울특별시 종로구 인사동11길 6"
  },
  {
    "name": "인사동홍보관",
    "lat": 37.57364,
    "lng": 126.98358,
    "address": "서울특별시 종로구 인사동11길 19"
  },
  {
    "name": "서울대학교 외래암센터내",
    "lat": 37.57884,
    "lng": 127.00105,
    "address": "서울특별시 종로구 대학로 101"
  },
  {
    "name": "북촌발효공방(빚담)",
    "lat": 37.58235,
    "lng": 126.98551,
    "address": "서울특별시 종로구 가회동 11-39"
  },
  {
    "name": "동묘시장공중화장실",
    "lat": 37.57243,
    "lng": 127.01896,
    "address": "서울특별시 종로구 종로58길 27"
  },
  {
    "name": "종묘광장",
    "lat": 37.5715,
    "lng": 126.99505,
    "address": "서울특별시 종로구 훈정동 2"
  },
  {
    "name": "인왕산 청운지구(1)(서시정 화장실)",
    "lat": 37.5912,
    "lng": 126.96619,
    "address": "서울특별시 종로구 청운동 7-2"
  },
  {
    "name": "명륜와룡공영주차장",
    "lat": 37.58869,
    "lng": 126.99554,
    "address": "서울특별시 종로구 명륜길 26"
  },
  {
    "name": "이화동한복(김영희 한복대여)",
    "lat": 37.57726,
    "lng": 127.00711,
    "address": "서울특별시 종로구 율곡로19길 71-1"
  },
  {
    "name": "북악팔각정 공중화장실",
    "lat": 37.60154,
    "lng": 126.98006,
    "address": "서울특별시 종로구 북악산로 267"
  },
  {
    "name": "동대문 신발상가 A동  3층, 6층",
    "lat": 37.57077,
    "lng": 127.01367,
    "address": "서울특별시 종로구 청계천로 295"
  },
  {
    "name": "창신역(6)",
    "lat": 37.579361,
    "lng": 127.013092,
    "address": "서울특별시 종로구 창신동 20-8 창신역"
  },
  {
    "name": "청운효자동주민센터",
    "lat": 37.58414,
    "lng": 126.9706,
    "address": "서울특별시 종로구 자하문로 92"
  },
  {
    "name": "광장시장 동문 앞 공중화장실",
    "lat": 37.5702,
    "lng": 127.00167,
    "address": "서울특별시 종로구 동호로 401"
  },
  {
    "name": "GS25 상명대점",
    "lat": 37.60169,
    "lng": 126.95562,
    "address": "서울특별시 종로구 홍지문2길 16"
  },
  {
    "name": "계동교회",
    "lat": 37.58101,
    "lng": 126.98666,
    "address": "서울특별시 종로구 계동길 81"
  },
  {
    "name": "종오지하상가 화장실",
    "lat": 37.57264,
    "lng": 127.00128,
    "address": "서울특별시 종로구 종로 지하 200"
  },
  {
    "name": "신문로빌딩",
    "lat": 37.5694,
    "lng": 126.96998,
    "address": "서울특별시 종로구 새문안로 38"
  },
  {
    "name": "종묘공영주차장(주차시설운영처)",
    "lat": 37.5715,
    "lng": 126.99505,
    "address": "서울특별시 종로구 훈정동 2"
  },
  {
    "name": "인사동마루 신관",
    "lat": 37.57356,
    "lng": 126.98493,
    "address": "서울특별시 종로구 인사동길 35-4"
  },
  {
    "name": "광장시장 3층 별관포목부",
    "lat": 37.57009,
    "lng": 126.99608,
    "address": "서울특별시 종로구 창경궁로 88"
  },
  {
    "name": "종각",
    "lat": 37.57264,
    "lng": 127.00128,
    "address": "서울특별시 종로구 종로 지하 73"
  },
  {
    "name": "서대문역(5)",
    "lat": 37.56577,
    "lng": 126.964461,
    "address": "서울특별시 종로구 평동 210 서대문역"
  },
  {
    "name": "동대문신발상가 B동, 3층",
    "lat": 37.57013,
    "lng": 127.01554,
    "address": "서울특별시 종로구 청계천로307, 3층 동편계단"
  },
  {
    "name": "삼청근린공원(약수터 위)",
    "lat": 37.59271,
    "lng": 126.98179,
    "address": "서울특별시 종로구 삼청동 산2-1"
  },
  {
    "name": "세운스퀘어(라이프관1층)",
    "lat": 37.57229,
    "lng": 126.99707,
    "address": "서울특별시 종로구 창경궁로 109"
  },
  {
    "name": "직물놀이공방",
    "lat": 37.58228,
    "lng": 126.98405,
    "address": "서울특별시 종로구 북촌로11가길 14"
  },
  {
    "name": "사직경로당 옆 공중화장실",
    "lat": 37.57698,
    "lng": 126.96486,
    "address": "서울특별시 종로구 사직동 산1-11"
  },
  {
    "name": "숭인1지역 공중화장실",
    "lat": 37.57865,
    "lng": 127.01761,
    "address": "서울특별시 종로구 동망산1길 24"
  },
  {
    "name": "가회동 주민센터화장실",
    "lat": 37.58011,
    "lng": 126.9848,
    "address": "서울특별시 종로구 북촌로 35"
  },
  {
    "name": "수운회관",
    "lat": 37.57522,
    "lng": 126.98598,
    "address": "서울특별시 종로구 삼일대로 457"
  },
  {
    "name": "광장골목시장 수도직물(3층)",
    "lat": 37.56958,
    "lng": 126.99799,
    "address": "서울특별시 종로구 청계천로 195-7"
  },
  {
    "name": "운현궁 화장실",
    "lat": 37.57613,
    "lng": 126.98713,
    "address": "서울특별시 종로구 삼일대로 464"
  },
  {
    "name": "동묘공원",
    "lat": 37.57298,
    "lng": 127.01833,
    "address": "서울특별시 종로구 숭인동 238-1"
  },
  {
    "name": "구도일주유소(특종)",
    "lat": 37.60669,
    "lng": 126.9711,
    "address": "서울특별시 종로구 평창문화로 90"
  },
  {
    "name": "종각역(1)",
    "lat": 37.570175,
    "lng": 126.983226,
    "address": "서울특별시 종로구 종로1가 54 종각지하철역사"
  },
  {
    "name": "인왕산 누상지구 공중화장실(인왕 배드민턴장)",
    "lat": 37.58001,
    "lng": 126.96323,
    "address": "서울특별시 종로구 누상동 산1-38"
  },
  {
    "name": "숭인2지역 공중화장실",
    "lat": 37.57866,
    "lng": 127.01739,
    "address": "서울특별시 종로구 동망산1길 18-9"
  },
  {
    "name": "숭인1동 주민센터",
    "lat": 37.57784,
    "lng": 127.01564,
    "address": "서울특별시 종로구 지봉로 86"
  },
  {
    "name": "혜화동공중화장실(자치회관)",
    "lat": 37.58683,
    "lng": 127.00053,
    "address": "서울특별시 종로구 혜화로 12"
  },
  {
    "name": "관수교북단 공중화장실",
    "lat": 37.5686,
    "lng": 126.99225,
    "address": "서울특별시 종로구 관수동 91-2"
  },
  {
    "name": "목공예공방",
    "lat": 37.5828,
    "lng": 126.9873,
    "address": "서울특별시 종로구 계동6길 12"
  },
  {
    "name": "낙산공원 중앙광장",
    "lat": 37.58066,
    "lng": 127.00717,
    "address": "서울특별시 종로구 낙산길 54"
  },
  {
    "name": "동대문역(1)",
    "lat": 37.576087,
    "lng": 127.02456,
    "address": "서울특별시 종로구 창신동 492-1 1호선 동대문역(1호선)"
  },
  {
    "name": "삼청근린공원(관리실 옆)",
    "lat": 37.59271,
    "lng": 126.98179,
    "address": "서울특별시 종로구 삼청동 산2-1"
  },
  {
    "name": "동묘앞역(1)",
    "lat": 37.573281,
    "lng": 127.016649,
    "address": "서울특별시 종로구 숭인동 117 동묘앞역(1호선)"
  },
  {
    "name": "서울무형문화재교육전시장 화장실",
    "lat": 37.57694,
    "lng": 126.9911,
    "address": "서울특별시 종로구 율곡로 10길 13"
  },
  {
    "name": "원서공원",
    "lat": 37.5784,
    "lng": 126.98862,
    "address": "서울특별시 종로구 원서동 181"
  },
  {
    "name": "교남동주민센터",
    "lat": 37.57187,
    "lng": 126.96198,
    "address": "서울특별시 종로구 송월길 154"
  },
  {
    "name": "숭인2동 주민센터",
    "lat": 37.57488,
    "lng": 127.01998,
    "address": "서울특별시 종로구 종로65길 10"
  },
  {
    "name": "종각역(1)",
    "lat": 37.570175,
    "lng": 126.983226,
    "address": "서울특별시 종로구 종로1가 54 종각지하철역사"
  },
  {
    "name": "백남준기념관",
    "lat": 37.57307,
    "lng": 127.01378,
    "address": "서울특별시 종로구 종로53길 12-1"
  },
  {
    "name": "이화동 마을박물관",
    "lat": 37.57786,
    "lng": 127.00794,
    "address": "서울특별시 종로구 낙산성곽서1길 19"
  },
  {
    "name": "원각사화장실",
    "lat": 37.57201,
    "lng": 126.98857,
    "address": "서울특별시 종로구 종로17길 34"
  },
  {
    "name": "신교공영주차장",
    "lat": 37.58568,
    "lng": 126.96657,
    "address": "서울특별시 종로구 자하문로33길 89, 지하2층"
  },
  {
    "name": "수성동계곡 공중화장실",
    "lat": 37.58256,
    "lng": 126.96299,
    "address": "서울특별시 종로구 옥인동 179-4"
  },
  {
    "name": "사직단 공중화장실(사직공원)",
    "lat": 37.57594,
    "lng": 126.96727,
    "address": "서울특별시 종로구 사직동 1-28"
  },
  {
    "name": "광장시장 3층 광장직물부",
    "lat": 37.57009,
    "lng": 126.99608,
    "address": "서울특별시 종로구 창경궁로 88"
  },
  {
    "name": "주식회사 대양씨앤씨 경복궁주유소",
    "lat": 37.57629,
    "lng": 126.98928,
    "address": "서울특별시 종로구 율곡로 6"
  },
  {
    "name": "버거킹(수송동점)",
    "lat": 37.57258,
    "lng": 126.98048,
    "address": "서울특별시 종로구 삼봉로 57"
  },
  {
    "name": "와룡공원(배드민턴장)",
    "lat": 37.59158,
    "lng": 126.99236,
    "address": "서울특별시 종로구 명륜3가 산2-14"
  },
  {
    "name": "여전도회관",
    "lat": 37.57293,
    "lng": 126.99947,
    "address": "서울특별시 종로구 율곡로 190"
  },
  {
    "name": "구기동공중화장실",
    "lat": 37.60962,
    "lng": 126.95642,
    "address": "서울특별시 종로구 비봉길 13"
  },
  {
    "name": "동대문지하상가 화장실",
    "lat": 37.57616,
    "lng": 126.99479,
    "address": "서울특별시 종로구 율곡로 지하 308"
  },
  {
    "name": "종묘공영주차장(주차시설운영처)",
    "lat": 37.5715,
    "lng": 126.99505,
    "address": "서울특별시 종로구 훈정동 2"
  },
  {
    "name": "홍염장 공방",
    "lat": 37.57895,
    "lng": 126.98423,
    "address": "서울특별시 종로구 재동 33"
  },
  {
    "name": "광장전통시장 기부채납건물 1층",
    "lat": 37.57046,
    "lng": 127.00108,
    "address": "서울특별시 종로구 동호로 403-26"
  },
  {
    "name": "종로5가역(1)",
    "lat": 37.571743,
    "lng": 127.011169,
    "address": "서울특별시 종로구 종로5가 82-1 1호선 종로5가역"
  },
  {
    "name": "세종문화회관 화장실",
    "lat": 37.57224,
    "lng": 126.97594,
    "address": "서울특별시 종로구 세종대로 175"
  },
  {
    "name": "㈜인사아트프라자",
    "lat": 37.57385,
    "lng": 126.98561,
    "address": "서울특별시 종로구 인사동길 34-1"
  },
  {
    "name": "안풍주유소",
    "lat": 37.59921,
    "lng": 126.95915,
    "address": "서울특별시 종로구 자하문로 303"
  },
  {
    "name": "종합시장D동상가 본관지상3층",
    "lat": 37.57061,
    "lng": 127.00735,
    "address": "서울특별시 종로구 종로 266"
  },
  {
    "name": "종로1234가동 주민센터",
    "lat": 37.57449,
    "lng": 126.99024,
    "address": "서울특별시 종로구 삼일대로30길 47"
  },
  {
    "name": "동부여성문화센터",
    "lat": 37.57697,
    "lng": 127.0099,
    "address": "서울특별시 종로구 창신길 124"
  },
  {
    "name": "영풍빌딩",
    "lat": 37.56958,
    "lng": 126.98214,
    "address": "서울특별시 종로구 청계천로 41"
  },
  {
    "name": "경희궁의아침 2단지",
    "lat": 37.57397,
    "lng": 126.97129,
    "address": "서울특별시 종로구 사직로8길 24"
  },
  {
    "name": "변호사회관",
    "lat": 37.57166,
    "lng": 126.97534,
    "address": "서울특별시 종로구 새문안로5길 13"
  },
  {
    "name": "맥도날드(종로3가)",
    "lat": 37.57008,
    "lng": 126.99046,
    "address": "서울특별시 종로구 종로 115"
  },
  {
    "name": "한국공예문화진흥원",
    "lat": 37.57402,
    "lng": 126.98412,
    "address": "서울특별시 종로구 인사동11길 8"
  },
  {
    "name": "무악동주민센터",
    "lat": 37.57593,
    "lng": 126.95814,
    "address": "서울특별시 종로구 통일로14길 36"
  },
  {
    "name": "이화동주민센터",
    "lat": 37.57698,
    "lng": 127.00435,
    "address": "서울특별시 종로구 이화장길 33"
  },
  {
    "name": "와룡공원 주변 공중화장실",
    "lat": 37.59118,
    "lng": 126.99196,
    "address": "서울특별시 종로구 명륜3가 산2-13"
  },
  {
    "name": "탑골공원",
    "lat": 37.5712,
    "lng": 126.98836,
    "address": "서울특별시 종로구 종로2가 38-1"
  },
  {
    "name": "경복궁역(3)",
    "lat": 37.571196,
    "lng": 126.991959,
    "address": "서울특별시 종로구 적선동 81-1 3호선 경복궁역"
  },
  {
    "name": "광장시장 3층 동관부",
    "lat": 37.57009,
    "lng": 126.99608,
    "address": "서울특별시 종로구 창경궁로 88"
  },
  {
    "name": "북촌문화센터",
    "lat": 37.57909,
    "lng": 126.98642,
    "address": "서울특별시 종로구 계동길 37"
  },
  {
    "name": "경동빌딩(스타이발관)",
    "lat": 37.57224,
    "lng": 126.98814,
    "address": "서울특별시 종로구 종로17길 45"
  },
  {
    "name": "동묘앞역(1)",
    "lat": 37.573281,
    "lng": 127.016649,
    "address": "서울특별시 종로구 숭인동 117 동묘앞역(1호선)"
  },
  {
    "name": "돈의문박물관마을안내소",
    "lat": 37.56881,
    "lng": 126.96854,
    "address": "서울특별시 종로구 송월길 14-3"
  },
  {
    "name": "동익상가(상명대후문쪽)",
    "lat": 37.60439,
    "lng": 126.95799,
    "address": "서울특별시 종로구 홍지문길 64"
  },
  {
    "name": "서울글로벌센터",
    "lat": 37.56986,
    "lng": 126.98147,
    "address": "서울특별시 종로구 종로 38 서울글로벌센터"
  },
  {
    "name": "CGV 대학로점 2F",
    "lat": 37.58347,
    "lng": 126.99985,
    "address": "서울특별시 종로구 대명길 28"
  },
  {
    "name": "세운스퀘어(테크노관1층)",
    "lat": 37.57229,
    "lng": 126.99707,
    "address": "서울특별시 종로구 창경궁로 109"
  },
  {
    "name": "창신2동 주민센터",
    "lat": 37.57446,
    "lng": 127.01086,
    "address": "서울특별시 종로구 창신길 62"
  },
  {
    "name": "동림매듭박물관",
    "lat": 37.58241,
    "lng": 126.98586,
    "address": "서울특별시 종로구 북촌로12길 10"
  },
  {
    "name": "동대문종합시장 D동상가 2층",
    "lat": 37.57061,
    "lng": 127.00735,
    "address": "서울특별시 종로구 종로 266"
  },
  {
    "name": "혜화역(4)",
    "lat": 37.58204392,
    "lng": 127.0194501,
    "address": "서울특별시 종로구 명륜4가 96-5 4호선 혜화역"
  },
  {
    "name": "세종로공영주차장",
    "lat": 37.57338,
    "lng": 126.97592,
    "address": "서울특별시 종로구 세종대로 789"
  },
  {
    "name": "동묘앞역(1)",
    "lat": 37.573281,
    "lng": 127.016649,
    "address": "서울특별시 종로구 숭인동 117 동묘앞역(1호선)"
  },
  {
    "name": "참샘골공원 공중화장실",
    "lat": 37.61164,
    "lng": 126.96861,
    "address": "서울특별시 종로구 평창길 273"
  },
  {
    "name": "종합시장D동상가 본관지하1층",
    "lat": 37.57061,
    "lng": 127.00735,
    "address": "서울특별시 종로구 종로 266"
  },
  {
    "name": "종로5-6가동주민센터",
    "lat": 37.57206,
    "lng": 127.00503,
    "address": "서울특별시 종로구 종로35가길 19"
  },
  {
    "name": "마로니에공원(지하1층)",
    "lat": 37.58049,
    "lng": 127.00272,
    "address": "서울특별시 종로구 동숭동 1-124"
  },
  {
    "name": "인왕산수목원약수터 공중화장실",
    "lat": 37.58301,
    "lng": 126.96376,
    "address": "서울특별시 종로구 옥인동 179-1"
  },
  {
    "name": "창2공중화장실(창신1지역)",
    "lat": 37.57498,
    "lng": 127.00984,
    "address": "서울특별시 종로구 창신4가길 34-15"
  },
  {
    "name": "무궁화동산",
    "lat": 37.58425,
    "lng": 126.97235,
    "address": "서울특별시 종로구 궁정동 55-3"
  },
  {
    "name": "쌈지길(지상1,2층)",
    "lat": 37.57433,
    "lng": 126.98521,
    "address": "서울특별시 종로구 인사동길 44"
  },
  {
    "name": "베드로빌딩",
    "lat": 37.57674,
    "lng": 127.0046,
    "address": "서울특별시 종로구 이화장길 36-2"
  },
  {
    "name": "4.19도서관",
    "lat": 37.5675,
    "lng": 126.9677,
    "address": "서울특별시 종로구 새문안로 17"
  },
  {
    "name": "라이온스 빌딩",
    "lat": 37.57473,
    "lng": 126.98656,
    "address": "서울특별시 종로구 삼일대로 451"
  },
  {
    "name": "지봉골어린이공원",
    "lat": 37.57888,
    "lng": 127.01463,
    "address": "서울특별시 종로구 창신동 산6-25"
  },
  {
    "name": "종로구청화장실",
    "lat": 37.57292,
    "lng": 126.97927,
    "address": "서울특별시 종로구 삼봉로 43"
  },
  {
    "name": "창신동공중화장실",
    "lat": 37.57843,
    "lng": 127.01254,
    "address": "서울특별시 종로구 지봉로13길 46"
  },
  {
    "name": "서울생활문화센터 체부",
    "lat": 37.57672,
    "lng": 126.97154,
    "address": "서울특별시 종로구 자하문로1나길 3-2"
  },
  {
    "name": "광화문역(5)",
    "lat": 37.568666,
    "lng": 126.969794,
    "address": "서울특별시 종로구 세종로 1-90 광화문역"
  },
  {
    "name": "종오",
    "lat": 37.57264,
    "lng": 127.00128,
    "address": "서울특별시 종로구 종로 지하 200"
  },
  {
    "name": "종로3가역(1)",
    "lat": 37.57042,
    "lng": 126.992153,
    "address": "서울특별시 종로3가 10-5 1호선 종로3가역(1호선)"
  },
  {
    "name": "숭인빌딩",
    "lat": 37.57198,
    "lng": 127.02006,
    "address": "서울특별시 종로구 청계천로 383"
  },
  {
    "name": "KFC대학로점",
    "lat": 37.58188,
    "lng": 127.0023,
    "address": "서울특별시 종로구 대학로120"
  },
  {
    "name": "한일빌딩",
    "lat": 37.57012,
    "lng": 127.00305,
    "address": "서울특별시 종로구 청계천로 229"
  },
  {
    "name": "동묘앞역(6)",
    "lat": 37.572729,
    "lng": 127.013819,
    "address": "서울특별시 종로구 창신동 263-2 동묘앞역(6호선)"
  },
  {
    "name": "무악동배드민턴장 공중화장실",
    "lat": 37.57795,
    "lng": 126.95691,
    "address": "서울특별시 종로구 통일로18가길 46"
  },
  {
    "name": "안국역(3)",
    "lat": 37.566412,
    "lng": 126.994185,
    "address": "서울특별시 종로구 안국동 155-2 3호선 안국역"
  },
  {
    "name": "동대문역(4)",
    "lat": 37.561159,
    "lng": 126.994398,
    "address": "서울특별시 종로구 종로6가 287-1 동대문역(4호선)"
  },
  {
    "name": "보건소",
    "lat": 37.58177,
    "lng": 126.96926,
    "address": "서울특별시 종로구 자하문로19길 36"
  },
  {
    "name": "광장시장(합동,화창빌딩)",
    "lat": 37.57042,
    "lng": 126.99938,
    "address": "서울특별시 종로구 종로 194-7"
  },
  {
    "name": "낙산공원 정상",
    "lat": 37.58019,
    "lng": 127.008,
    "address": "서울특별시 종로구 낙산성곽서길 173"
  },
  {
    "name": "인왕산 청운지구(2)(청운공원 화장실)",
    "lat": 37.59103,
    "lng": 126.96627,
    "address": "서울특별시 종로구 청운동 7-3"
  },
  {
    "name": "허리우드극장(낙원상가4층)",
    "lat": 37.57258,
    "lng": 126.98781,
    "address": "서울특별시 종로구 삼일대로 428"
  },
  {
    "name": "버거킹(종로점)",
    "lat": 37.56994,
    "lng": 126.98811,
    "address": "서울특별시 종로구 종로 94"
  },
  {
    "name": "동묘앞역(1)",
    "lat": 37.573281,
    "lng": 127.016649,
    "address": "서울특별시 종로구 숭인동 117 동묘앞역(1호선)"
  },
  {
    "name": "광장시장 1층 청과부",
    "lat": 37.57009,
    "lng": 126.99608,
    "address": "서울특별시 종로구 창경궁로 88"
  },
  {
    "name": "맥도날드 서울동묘앞역점",
    "lat": 37.57315,
    "lng": 127.01512,
    "address": "서울특별시 종로구 종로 339"
  },
  {
    "name": "우정총국시민광장",
    "lat": 37.5743,
    "lng": 126.98269,
    "address": "서울특별시 종로구 견지동 39-8"
  },
  {
    "name": "통인시장 고객만족센터",
    "lat": 37.58077,
    "lng": 126.96995,
    "address": "서울특별시 종로구 자하문로 15길 18"
  },
  {
    "name": "종로문화체육센터",
    "lat": 37.57428,
    "lng": 126.96468,
    "address": "서울특별시 종로구 인왕산로1길 21"
  },
  {
    "name": "누상동체육시설 공중화장실",
    "lat": 37.58011,
    "lng": 126.96367,
    "address": "서울특별시 종로구 옥인6길 26-17"
  },
  {
    "name": "서대문교회",
    "lat": 37.56925,
    "lng": 126.96545,
    "address": "서울특별시 종로구 통일로8길 16, 2층"
  },
  {
    "name": "SK본사",
    "lat": 37.56997,
    "lng": 126.98278,
    "address": "서울특별시 종로구 종로 26"
  },
  {
    "name": "안동교회",
    "lat": 37.57841,
    "lng": 126.98316,
    "address": "서울특별시 종로구 윤보선길 57"
  },
  {
    "name": "락고재 북촌빈관(서울공공한옥)",
    "lat": 37.58237,
    "lng": 126.98421,
    "address": "서울특별시 종로구 북촌로11가길 10"
  },
  {
    "name": "청운대쉼터 공중화장실",
    "lat": 37.59271,
    "lng": 126.98179,
    "address": "서울특별시 종로구 삼청동 산2-1"
  },
  {
    "name": "맥도날드(대학로)",
    "lat": 37.58009,
    "lng": 127.00299,
    "address": "서울특별시 종로구 대학로 130"
  },
  {
    "name": "인왕산등산로입구 공중화장실",
    "lat": 37.57741,
    "lng": 126.96114,
    "address": "서울특별시 종로구 무악동 46-1894"
  },
  {
    "name": "계원빌딩",
    "lat": 37.56952,
    "lng": 126.9874,
    "address": "서울특별시 종로구 청계천로 71"
  },
  {
    "name": "삼청동 주민센터",
    "lat": 37.58499,
    "lng": 126.98188,
    "address": "서울특별시 종로구 삼청로 107"
  },
  {
    "name": "하나로빌딩",
    "lat": 37.57209,
    "lng": 126.98544,
    "address": "서울특별시 종로구 인사동5길 25"
  },
  {
    "name": "평창동주민센터",
    "lat": 37.60637,
    "lng": 126.96834,
    "address": "서울특별시 종로구 평창문화로 65"
  },
  {
    "name": "경희궁의 아침 3단지",
    "lat": 37.57359,
    "lng": 126.9721,
    "address": "서울특별시 종로구 사직로8길 34"
  },
  {
    "name": "성터교회",
    "lat": 37.57496,
    "lng": 127.00929,
    "address": "서울특별시 종로구 낙산성곽동길 26"
  },
  {
    "name": "청운대안내소 공중화장실(청운대 안내소 앞)",
    "lat": 37.5963,
    "lng": 126.97289,
    "address": "서울특별시 종로구 부암동 16-3"
  },
  {
    "name": "삼청테니스장",
    "lat": 37.59271,
    "lng": 126.98179,
    "address": "서울특별시 종로구 삼청로 156"
  },
  {
    "name": "사직동 주민센터화장실",
    "lat": 37.57594,
    "lng": 126.96727,
    "address": "서울특별시 종로구 사직로9길 1"
  },
  {
    "name": "종로3가역(3)",
    "lat": 37.57156329,
    "lng": 126.9918758,
    "address": "서울특별시 종로구 묘동 59 종로3가역(3호선)"
  },
  {
    "name": "JW 매리어트 호텔",
    "lat": 37.57092,
    "lng": 127.00784,
    "address": "서울특별시 종로구 청계천로 279"
  },
  {
    "name": "인왕산 청운지구(3)(청운공원 어린이놀이터 화장실)",
    "lat": 37.58968,
    "lng": 126.96542,
    "address": "서울특별시 종로구 청운동 7-6"
  },
  {
    "name": "숭인공원",
    "lat": 37.57606,
    "lng": 127.01755,
    "address": "서울특별시 종로구 숭인동 58"
  },
  {
    "name": "강북삼성병원",
    "lat": 37.56836,
    "lng": 126.96749,
    "address": "서울특별시 종로구 새문안로 29"
  },
  {
    "name": "세운스퀘어(주얼리관)",
    "lat": 37.57229,
    "lng": 126.99707,
    "address": "서울특별시 종로구 창경궁로 109"
  },
  {
    "name": "삼청동공중화장실",
    "lat": 37.58591,
    "lng": 126.98162,
    "address": "서울특별시 종로구 삼청로 117"
  },
  {
    "name": "㈜대양씨앤씨 사직주유소",
    "lat": 37.57451,
    "lng": 126.96661,
    "address": "서울특별시 종로구 사직로 65"
  },
  {
    "name": "산마루놀이터",
    "lat": 37.57558,
    "lng": 127.01241,
    "address": "서울특별시 종로구 창신동 23-350"
  },
  {
    "name": "종로구민회관",
    "lat": 37.57352,
    "lng": 127.01449,
    "address": "서울특별시 종로구 지봉로5길 7-5"
  },
  {
    "name": "인사동마루 본관",
    "lat": 37.57346,
    "lng": 126.98512,
    "address": "서울특별시 종로구 인사동길 35-6"
  },
  {
    "name": "종로3가역(3)",
    "lat": 37.57156329,
    "lng": 126.9918758,
    "address": "서울특별시 종로구 묘동 59 종로3가역(3호선)"
  },
  {
    "name": "남인사마당 공중화장실",
    "lat": 37.57172,
    "lng": 126.98608,
    "address": "서울특별시 종로구 인사동길 6"
  },
  {
    "name": "SK네트웍스㈜재동주유소",
    "lat": 37.57643,
    "lng": 126.98585,
    "address": "서울특별시 종로구 율곡로 58"
  },
  {
    "name": "창신3동 주민센터",
    "lat": 37.578,
    "lng": 127.0147,
    "address": "서울특별시 종로구 지봉로 87, 2층"
  },
  {
    "name": "자하문주유소",
    "lat": 37.59633,
    "lng": 126.96435,
    "address": "서울특별시 종로구 자하문로 248"
  },
  {
    "name": "한국색동박물관",
    "lat": 37.5739,
    "lng": 126.9921,
    "address": "서울특별시 종로구 율곡로10길 85-7 1층, 2층"
  },
  {
    "name": "창의문안내소 공중화장실(창의문 안내소 앞)",
    "lat": 37.59135,
    "lng": 126.97183,
    "address": "서울특별시 종로구 청운동 산1-1"
  },
  {
    "name": "㈜중앙에너비스 혜화지점",
    "lat": 37.58609,
    "lng": 127.00107,
    "address": "서울특별시 종로구 창경궁로35길 1"
  },
  {
    "name": "대학로예술극장",
    "lat": 37.58322,
    "lng": 127.0044,
    "address": "서울특별시 종로구 대학로10길 17"
  },
  {
    "name": "인왕산 무악지구 공중화장실(인왕사 화장실)",
    "lat": 37.57822,
    "lng": 126.96044,
    "address": "서울특별시 종로구 무악동 산2-84"
  },
  {
    "name": "마로니에공원(지상1층)",
    "lat": 37.58049,
    "lng": 127.00272,
    "address": "서울특별시 종로구 동숭동 1-124"
  },
  {
    "name": "경희궁공원",
    "lat": 37.57076,
    "lng": 126.96884,
    "address": "서울특별시 종로구 신문로2가 2-1"
  },
  {
    "name": "신진시장(만남의 장소)",
    "lat": 37.57023,
    "lng": 127.00495,
    "address": "서울특별시 종로구 종로38길 16"
  },
  {
    "name": "동대문",
    "lat": 37.57616,
    "lng": 126.99479,
    "address": "서울특별시 종로구 율곡로 지하 308호"
  },
  {
    "name": "서울글로벌센터",
    "lat": 37.56986,
    "lng": 126.98147,
    "address": "서울특별시 종로구 종로 38 서울글로벌센터"
  },
  {
    "name": "종로3가역(1)",
    "lat": 37.57042,
    "lng": 126.992153,
    "address": "서울특별시 종로3가 10-5 1호선 종로3가역(1호선)"
  },
  {
    "name": "인창빌딩",
    "lat": 37.57423,
    "lng": 126.98601,
    "address": "서울특별시 종로구 인사동길 29"
  },
  {
    "name": "㈜지에스이앤알 평창주유소",
    "lat": 37.60974,
    "lng": 126.97452,
    "address": "서울특별시 종로구 평창문화로 135"
  },
  {
    "name": "종로3가역(5)",
    "lat": 37.5715,
    "lng": 126.989059,
    "address": "서울특별시 종로구 낙원동 126 종로3가역(5호선)"
  },
  {
    "name": "혜화동공중화장실(한옥청사)",
    "lat": 37.58683,
    "lng": 127.00053,
    "address": "서울특별시 종로구 혜화로 12"
  },
  {
    "name": "월드그랑서울",
    "lat": 37.57111,
    "lng": 126.98139,
    "address": "서울특별시 종로구 종로 33"
  },
  {
    "name": "다동소공원",
    "lat": 37.567792,
    "lng": 126.98052,
    "address": "서울특별시 중구 다동길 15"
  },
  {
    "name": "청계6가 지하상가",
    "lat": 37.56936948,
    "lng": 127.0096116,
    "address": "서울특별시 중구 장충단로 지하280"
  },
  {
    "name": "을지입구 지하상가",
    "lat": 37.56634311,
    "lng": 126.9839633,
    "address": "서울특별시 중구 을지로 지하58"
  },
  {
    "name": "을지로3가역(3) 화장실",
    "lat": 37.5666502,
    "lng": 126.9942277,
    "address": "서울특별시 중구 을지로 지하 129"
  },
  {
    "name": "청구어린이공원",
    "lat": 37.554856,
    "lng": 127.01435,
    "address": "서울특별시 중구 다산로14길 50, 청구어린이공원 화장실 (신당동)"
  },
  {
    "name": "석호정",
    "lat": 37.54900941,
    "lng": 126.9933126,
    "address": "서울특별시 중구 남산공원길 372"
  },
  {
    "name": "훈련원근린공원",
    "lat": 37.567397,
    "lng": 127.00354,
    "address": "서울특별시 중구  을지로 227"
  },
  {
    "name": "약수역(3) 화장실",
    "lat": 37.569744,
    "lng": 127.046945,
    "address": "서울특별시 중구 다산로 지하 122"
  },
  {
    "name": "응봉근린공원(관리실 옆)",
    "lat": 37.550425,
    "lng": 127.013402,
    "address": "서울특별시 중구 신당동 351-104"
  },
  {
    "name": "명동역지하상가",
    "lat": 37.56109433,
    "lng": 126.9852911,
    "address": "서울특별시 중구 퇴계로 지하124"
  },
  {
    "name": "묵정어린이공원",
    "lat": 37.563781,
    "lng": 126.999801,
    "address": "서울특별시 중구 퇴계로45길 32-12"
  },
  {
    "name": "충정녹지대",
    "lat": 37.556875,
    "lng": 126.964401,
    "address": "서울특별시 중구 중림동 1046"
  },
  {
    "name": "광희동 공중화장실",
    "lat": 37.564307,
    "lng": 127.006391,
    "address": "서울특별시 중구 마른내로 166"
  },
  {
    "name": "회현역(4)",
    "lat": 37.534394,
    "lng": 126.973014,
    "address": "서울특별시 중구 퇴계로 지하 54"
  },
  {
    "name": "남산예장공영주차장 화장실",
    "lat": 37.56003451,
    "lng": 126.9887049,
    "address": "서울특별시 중구 퇴계로26길 36(예장동)"
  },
  {
    "name": "서울역(1) 화장실",
    "lat": 37.556878,
    "lng": 126.972578,
    "address": "서울특별시 중구 세종대로 지하 2"
  },
  {
    "name": "청구역 공중화장실",
    "lat": 37.560813,
    "lng": 127.013293,
    "address": "서울특별시 중구 청구로 82(신당동)"
  },
  {
    "name": "을지로입구역(2) 화장실",
    "lat": 37.56627899,
    "lng": 126.9820007,
    "address": "서울특별시 중구 을지로 지하 42"
  },
  {
    "name": "1호터널",
    "lat": 37.55208792,
    "lng": 126.9880865,
    "address": "서울특별시 중구 남산공원길 507"
  },
  {
    "name": "청구역(6) 화장실",
    "lat": 37.557424,
    "lng": 127.009814,
    "address": "서울특별시 중구 청구로 지하 77"
  },
  {
    "name": "을지4구역A 지하상가",
    "lat": 37.5669913,
    "lng": 127.0033663,
    "address": "서울특별시 중구 을지로 지하218"
  },
  {
    "name": "새싹마을마당",
    "lat": 37.559554,
    "lng": 127.012039,
    "address": "서울특별시 중구 동호로12길 97"
  },
  {
    "name": "시청역(1) 화장실",
    "lat": 37.56581805,
    "lng": 126.9768166,
    "address": "서울특별시 중구 세종대로 지하 101"
  },
  {
    "name": "서울특별시 중부수도사업소",
    "lat": 37.55353828,
    "lng": 127.0029341,
    "address": "서울특별시 중구 장충단로 88"
  },
  {
    "name": "소공지하상가C",
    "lat": 37.56394935,
    "lng": 126.9812604,
    "address": "서울특별시 중구 소공로 지하102"
  },
  {
    "name": "호현당화장실",
    "lat": 37.5546634,
    "lng": 126.98129,
    "address": "서울특별시 중구 소파로 46"
  },
  {
    "name": "충무로역(4) 화장실",
    "lat": 37.56138871,
    "lng": 126.994398,
    "address": "서울특별시 중구 퇴계로 지하 199"
  },
  {
    "name": "동대입구역(3) 화장실",
    "lat": 37.55949023,
    "lng": 127.0052965,
    "address": "서울특별시 중구 동호로 지하 256"
  },
  {
    "name": "훈련원공원주차장 지하 2층 동측",
    "lat": 37.56682939,
    "lng": 127.0028191,
    "address": "서울특별시 중구 을지로 227, 훈련원공원 (을지로5가)"
  },
  {
    "name": "청계5가 지하상가",
    "lat": 37.56917199,
    "lng": 127.002089,
    "address": "서울특별시 중구 동호로 지하384"
  },
  {
    "name": "남산골한옥마을 정문화장실",
    "lat": 37.55905141,
    "lng": 126.9940405,
    "address": "서울특별시 중구 퇴계로 34길 28"
  },
  {
    "name": "서울시청 본관 B1층 시민청 외부",
    "lat": 37.56660929,
    "lng": 126.9777261,
    "address": "서울특별시 중구 세종대로 110"
  },
  {
    "name": "필동주민센터",
    "lat": 37.560128,
    "lng": 126.995555,
    "address": "서울특별시 중구 퇴계로36길 42"
  },
  {
    "name": "남대문지하상가",
    "lat": 37.5611952,
    "lng": 126.9779351,
    "address": "서울특별시 중구 남대문로 지하14"
  },
  {
    "name": "동대문역사문화공원역(4)",
    "lat": 37.56514371,
    "lng": 127.0079152,
    "address": "서울특별시 중구 장충단로 지하230, 동대문역사문화공원역 4호선 (광희동2가)"
  },
  {
    "name": "장충동주민센터",
    "lat": 37.5619,
    "lng": 127.0078685,
    "address": "서울특별시 중구 장충단로8길 22"
  },
  {
    "name": "신당2호 공중화장실",
    "lat": 37.561378,
    "lng": 127.013799,
    "address": "서울특별시 중구 다산로31길 7-5"
  },
  {
    "name": "신당A 지하상가",
    "lat": 37.56870219,
    "lng": 127.0193546,
    "address": "서울특별시 중구 마장로 87"
  },
  {
    "name": "을지4구역B 지하상가",
    "lat": 37.5669913,
    "lng": 127.0033663,
    "address": "서울특별시 중구 을지로 지하218"
  },
  {
    "name": "서울중앙우체국(포스트타워)",
    "lat": 37.561365,
    "lng": 126.982237,
    "address": "서울특별시 중구 소공로 70"
  },
  {
    "name": "장충단공원",
    "lat": 37.55857572,
    "lng": 127.0038459,
    "address": "서울특별시 중구 동호로 257-10"
  },
  {
    "name": "정동근린공원",
    "lat": 37.568049,
    "lng": 126.971562,
    "address": "서울특별시 중구 정동길 21-18"
  },
  {
    "name": "서울시청 서소문청사 1층 로비",
    "lat": 37.56448399,
    "lng": 126.9747186,
    "address": "서울특별시 중구 덕수궁길 15"
  },
  {
    "name": "회현지하상가",
    "lat": 37.56068691,
    "lng": 126.9826395,
    "address": "서울특별시 중구 소공로 지하58"
  },
  {
    "name": "다산어린이공원",
    "lat": 37.563882,
    "lng": 127.018751,
    "address": "서울특별시 중구 신당동 123-1"
  },
  {
    "name": "시립미술관 서소문본관",
    "lat": 37.56443341,
    "lng": 126.9746692,
    "address": "서울특별시 중구 덕수궁길 61"
  },
  {
    "name": "버티고개역(6) 화장실",
    "lat": 37.547892,
    "lng": 127.004934,
    "address": "서울특별시 중구 다산로 지하 38"
  },
  {
    "name": "장충체육회",
    "lat": 37.55464639,
    "lng": 126.9997699,
    "address": "서울특별시 중구 장충동2가 산14-21"
  },
  {
    "name": "신당역(2) 화장실",
    "lat": 37.56555342,
    "lng": 127.0166717,
    "address": "서울특별시 중구 퇴계로 지하 431-1"
  },
  {
    "name": "동대문역사문화공원역(2) 화장실",
    "lat": 37.5659558,
    "lng": 127.0084956,
    "address": "서울특별시 중구 을지로 지하 279"
  },
  {
    "name": "약수역(6) 화장실",
    "lat": 37.553465,
    "lng": 127.009158,
    "address": "서울특별시 중구 다산로 지하 115"
  },
  {
    "name": "시청역(2)(지하2층) 화장실",
    "lat": 37.56372688,
    "lng": 126.9754385,
    "address": "서울특별시 중구 서소문로 127"
  },
  {
    "name": "시청역(2)(지하1층) 화장실",
    "lat": 37.56372688,
    "lng": 126.9754385,
    "address": "서울특별시 중구 서소문로 127"
  },
  {
    "name": "을지로3가역(2) 화장실",
    "lat": 37.56638258,
    "lng": 126.9902132,
    "address": "서울특별시 중구 을지로 지하 106"
  },
  {
    "name": "남대문시장 공중화장실",
    "lat": 37.559406,
    "lng": 126.976208,
    "address": "서울특별시 중구 남대문시장4길 28-16"
  },
  {
    "name": "잠두체육회화장실",
    "lat": 37.55497832,
    "lng": 126.9812796,
    "address": "서울특별시 중구 남산공원길 649"
  },
  {
    "name": "남산골한옥마을 중앙화장실",
    "lat": 37.55905141,
    "lng": 126.9940405,
    "address": "서울특별시 중구 퇴계로 34길 28"
  },
  {
    "name": "황학동 공중화장실",
    "lat": 37.567543,
    "lng": 127.018122,
    "address": "서울특별시 중구 다산로48길 33"
  },
  {
    "name": "응봉근린공원(동산초교위)",
    "lat": 37.555043,
    "lng": 127.016869,
    "address": "서울특별시 중구 매봉18길 95, 응봉근린공원 화장실(동산초교 위) (신당동)"
  },
  {
    "name": "훈련원공원주차장 지하 1층 동측",
    "lat": 37.56674851,
    "lng": 127.0030304,
    "address": "서울특별시 중구 을지로 227"
  },
  {
    "name": "동대문역사문화공원역(5) 화장실",
    "lat": 37.565102,
    "lng": 127.005576,
    "address": "서울특별시 중구 마른내로 지하 162"
  },
  {
    "name": "을지3구역 지하상가",
    "lat": 37.56668421,
    "lng": 126.994217,
    "address": "서울특별시 중구 을지로 지하131"
  },
  {
    "name": "팔각정 입구",
    "lat": 37.55211344,
    "lng": 126.9881079,
    "address": "서울특별시 중구 남산공원길 507"
  },
  {
    "name": "훈련원공원주차장 지하 1층 중앙",
    "lat": 37.5673882,
    "lng": 127.0027711,
    "address": "서울특별시 중구 을지로 227"
  },
  {
    "name": "을지로4가역(2) 화장실",
    "lat": 37.56671839,
    "lng": 126.9965495,
    "address": "서울특별시 중구 을지로 지하 178"
  },
  {
    "name": "신당B 지하상가",
    "lat": 37.56870219,
    "lng": 127.0193546,
    "address": "서울특별시 중구 마장로 87"
  },
  {
    "name": "신당C 지하상가",
    "lat": 37.56870219,
    "lng": 127.0193546,
    "address": "서울특별시 중구 마장로 87"
  },
  {
    "name": "훈련원공원주차장 지하 2층 중앙",
    "lat": 37.56751939,
    "lng": 127.0037221,
    "address": "서울특별시 중구 을지로 227, 훈련원공원 (을지로5가)"
  },
  {
    "name": "을지로4가역(5) 화장실",
    "lat": 37.56637129,
    "lng": 126.9984921,
    "address": "서울특별시 중구 창경궁로 지하 51"
  },
  {
    "name": "장충체육관A",
    "lat": 37.55837612,
    "lng": 127.0065825,
    "address": "서울특별시 중구 동호로 241"
  },
  {
    "name": "명동역(4)",
    "lat": 37.56105181,
    "lng": 126.9853662,
    "address": "서울특별시 중구 퇴계로 지하 126"
  },
  {
    "name": "목멱산방화장실",
    "lat": 37.55213045,
    "lng": 126.9880328,
    "address": "서울특별시 중구 남산공원길 507"
  },
  {
    "name": "서소문역사공원",
    "lat": 37.560928,
    "lng": 126.969684,
    "address": "서울특별시 중구 칠패로 5"
  },
  {
    "name": "시청B 지하상가",
    "lat": 37.5660547,
    "lng": 126.9787859,
    "address": "서울특별시 중구 을지로 지하12, 시청광장지하쇼핑센터 (을지로1가)"
  },
  {
    "name": "봉래초등학교",
    "lat": 37.556178,
    "lng": 126.9637888,
    "address": "서울특별시 중구 손기정로 73, 봉래초등학교 (만리동2가)"
  },
  {
    "name": "시청A 지하상가",
    "lat": 37.5660547,
    "lng": 126.9787859,
    "address": "서울특별시 중구 을지로 지하12"
  },
  {
    "name": "신당1호 공중화장실",
    "lat": 37.563969,
    "lng": 127.013366,
    "address": "서울특별시 중구 다산로33다길 25"
  },
  {
    "name": "신당역(6) 화장실",
    "lat": 37.56775508,
    "lng": 127.0161011,
    "address": "서울특별시 중구 다산로 지하 260"
  },
  {
    "name": "이촌로 공중화장실",
    "lat": 37.52306544,
    "lng": 126.9612119,
    "address": "서울특별시 용산구 이촌로 121-1"
  },
  {
    "name": "철길담장 옆 공중화장실",
    "lat": 37.531676,
    "lng": 126.968679,
    "address": "서울특별시 용산구 한강로2가 2-341"
  },
  {
    "name": "신계동 공중화장실",
    "lat": 37.533821,
    "lng": 126.963396,
    "address": "서울특별시 용산구 한강로3가 2-1"
  },
  {
    "name": "이태원1 공중화장실",
    "lat": 37.53431939,
    "lng": 126.988845,
    "address": "서울특별시 용산구 녹사평대로40길 56"
  },
  {
    "name": "삼각지차고 옆 공중화장실",
    "lat": 37.53393056,
    "lng": 126.9703299,
    "address": "서울특별시 용산구 백범로99가길 60"
  },
  {
    "name": "삼영연립 공중화장실",
    "lat": 37.53102869,
    "lng": 126.9678692,
    "address": "서울특별시 용산구 한강대로39길 21 (한강로2가, 삼영연립주택)"
  },
  {
    "name": "이태원3 공중화장실",
    "lat": 37.53407459,
    "lng": 126.992243,
    "address": "서울특별시 용산구 이태원로164-1"
  },
  {
    "name": "이태원2 공중화장실",
    "lat": 37.54312768,
    "lng": 126.990189,
    "address": "서울특별시 용산구 소월로38가길 8"
  },
  {
    "name": "후암4 공중화장실",
    "lat": 37.55042378,
    "lng": 126.976134,
    "address": "서울특별시 용산구 한강대로104길 77"
  },
  {
    "name": "성동구립성수도서관(성수문화복지회관)",
    "lat": 37.545368,
    "lng": 127.047063,
    "address": "서울특별시 성동구 뚝섬로1길 43, 성수문화복지회관(성수동1가)"
  },
  {
    "name": "마장축산물 한전뒤",
    "lat": 37.5686,
    "lng": 127.0391,
    "address": "서울특별시 성동구 마장동 494"
  },
  {
    "name": "서울숲 방문자센터(지하) 화장실",
    "lat": 37.5431,
    "lng": 127.0419,
    "address": "서울특별시 성동구 뚝섬로 273"
  },
  {
    "name": "마장국민체육센터",
    "lat": 37.562118,
    "lng": 127.040765,
    "address": "서울특별시 성동구 마조로11길 6"
  },
  {
    "name": "용답휴식공원(신답역)",
    "lat": 37.5702,
    "lng": 127.0472,
    "address": "서울특별시 성동구 천호대로 232"
  },
  {
    "name": "행당6구역근린공원",
    "lat": 37.557,
    "lng": 127.039,
    "address": "서울특별시 성동구 고산자로2길 77"
  },
  {
    "name": "서울시설공단 청사 1층화장실",
    "lat": 37.571614,
    "lng": 127.0360402,
    "address": "서울특별시 성동구 청계천로 540, 서울시설공단 1층 (마장동)"
  },
  {
    "name": "도선공영주차장",
    "lat": 37.5656,
    "lng": 127.0318,
    "address": "서울특별시 성동구 무학로8길 8"
  },
  {
    "name": "청계천 4호 화장실",
    "lat": 37.5718989,
    "lng": 127.0387264,
    "address": "서울특별시 성동구 살곶이길 7"
  },
  {
    "name": "금호119안전센터",
    "lat": 37.5540023,
    "lng": 127.0243615,
    "address": "서울특별시 성동구난계로 19 (금호1가)"
  },
  {
    "name": "성수근린공원",
    "lat": 37.5445,
    "lng": 127.0523,
    "address": "서울특별시 성동구 성수동2가 302-25"
  },
  {
    "name": "금호스포츠센터",
    "lat": 37.5455958,
    "lng": 127.0250663,
    "address": "서울특별시 성동구 금호로 20"
  },
  {
    "name": "성동구민종합체육센터 화장실",
    "lat": 37.54565,
    "lng": 127.04442,
    "address": "서울특별시 성동구 왕십리로 89"
  },
  {
    "name": "대현산공원(간)",
    "lat": 37.5541,
    "lng": 127.0284,
    "address": "서울특별시 성동구 금호동1가 산 37-1"
  },
  {
    "name": "성동구립용답도서관",
    "lat": 37.566684,
    "lng": 127.051332,
    "address": "서울특별시 성동구 용답중앙3길 10"
  },
  {
    "name": "동부수도사업소 화장실",
    "lat": 37.5592312,
    "lng": 127.0354364,
    "address": "서울특별시 성동구 고산자로10길 13"
  },
  {
    "name": "성수종합사회복지관",
    "lat": 37.5453873,
    "lng": 127.046953,
    "address": "서울특별시 성동구 뚝섬로1길 43"
  },
  {
    "name": "서울숲 방문자센터(2층) 화장실",
    "lat": 37.5431,
    "lng": 127.0419,
    "address": "서울특별시 성동구 뚝섬로 273"
  },
  {
    "name": "달맞이봉(공원)",
    "lat": 37.5452,
    "lng": 127.0204,
    "address": "서울특별시 성동구 독서당로44길 25"
  },
  {
    "name": "왕십리도선동주민센터",
    "lat": 37.567881,
    "lng": 127.025529,
    "address": "서울특별시 성동구 마장로 141(상왕십리동)"
  },
  {
    "name": "매봉산 지하수 옆",
    "lat": 37.5458,
    "lng": 127.0087,
    "address": "서울특별시 성동구 동호로5길 207"
  },
  {
    "name": "성동소방서",
    "lat": 37.5538359,
    "lng": 127.039505,
    "address": "서울특별시 성동구살곶이길 331(행당동)"
  },
  {
    "name": "매봉산 숲속도서관",
    "lat": 37.5457,
    "lng": 127.0109,
    "address": "서울특별시 성동구 매봉길 49-29"
  },
  {
    "name": "금호3가복지관(경로당)",
    "lat": 37.5488,
    "lng": 127.0214,
    "address": "서울특별시 성동구 금호산2길 16"
  },
  {
    "name": "서울숲 곤충식물원 화장실",
    "lat": 37.5414,
    "lng": 127.0399,
    "address": "서울특별시 성동구 뚝섬로 273"
  },
  {
    "name": "4차산업혁명체험센터",
    "lat": 37.5546755,
    "lng": 127.0404499,
    "address": "서울특별시 성동구 살곶이길 327"
  },
  {
    "name": "성동구립금호도서관",
    "lat": 37.5540653,
    "lng": 127.0249005,
    "address": "서울특별시 성동구 난계로 20, 금호작은도서관(금호동1가)"
  },
  {
    "name": "서울숲 주차장 화장실",
    "lat": 37.5415,
    "lng": 127.0435,
    "address": "서울특별시 성동구 뚝섬로 273"
  },
  {
    "name": "성수119안전센터",
    "lat": 37.537151,
    "lng": 127.0606567,
    "address": "서울특별시 성동구뚝섬로 452(성수2가)"
  },
  {
    "name": "중량물재생센터 앞",
    "lat": 37.5508,
    "lng": 127.0611,
    "address": "서울특별시 성동구 송정동 73-37"
  },
  {
    "name": "성동안심상가 화장실",
    "lat": 37.54811,
    "lng": 127.0533,
    "address": "서울특별시 성동구 성수일로12길 20"
  },
  {
    "name": "서울숲 생태숲 화장실",
    "lat": 37.5427,
    "lng": 127.0349,
    "address": "서울특별시 성동구 뚝섬로 273"
  },
  {
    "name": "금호산(부대입구)",
    "lat": 37.5532,
    "lng": 127.0172,
    "address": "서울특별시 성동구 금호산15길 15"
  },
  {
    "name": "응봉체육공원",
    "lat": 37.5521,
    "lng": 127.0386,
    "address": "서울특별시 성동구 중랑천서자전거길 97"
  },
  {
    "name": "응봉암벽공원",
    "lat": 37.5486,
    "lng": 127.0309,
    "address": "서울특별시 성동구 독서당로60길 13-1"
  },
  {
    "name": "서울숲복합문화체육센터",
    "lat": 37.5495818,
    "lng": 127.041097,
    "address": "서울특별시 성동구 왕십리로11길 19"
  },
  {
    "name": "왕십리문화공원",
    "lat": 37.5618,
    "lng": 127.0352,
    "address": "서울특별시 성동구 도선동 35-2"
  },
  {
    "name": "한양대 앞",
    "lat": 37.5582,
    "lng": 127.0395,
    "address": "서울특별시 성동구 왕십리로 252"
  },
  {
    "name": "동마장어린이공원",
    "lat": 37.5663,
    "lng": 127.0457,
    "address": "서울특별시 성동구 마장동 780-1"
  },
  {
    "name": "응봉테니스장",
    "lat": 37.5512,
    "lng": 127.0369,
    "address": "서울특별시 성동구 중랑천서자전거길 85"
  },
  {
    "name": "성동문화회관",
    "lat": 37.55931,
    "lng": 127.0361,
    "address": "서울특별시 성동구 행당동 왕십리로 281"
  },
  {
    "name": "살곶이 진입부",
    "lat": 37.5544,
    "lng": 127.0479,
    "address": "서울특별시 성동구 살곶이길 259"
  },
  {
    "name": "서울숲 체육공원(시계탑) 화장실",
    "lat": 37.5461,
    "lng": 127.0414,
    "address": "서울특별시 성동구 뚝섬로 273"
  },
  {
    "name": "송정제방",
    "lat": 37.5491,
    "lng": 127.0595,
    "address": "서울특별시 성동구 송정동 75-14"
  },
  {
    "name": "용답꽃공원",
    "lat": 37.5605,
    "lng": 127.0549,
    "address": "서울특별시 성동구 천호대로78길 42"
  },
  {
    "name": "행당제1동주민센터",
    "lat": 37.55857,
    "lng": 127.03607,
    "address": "서울특별시 성동구 고산자로 10길 18"
  },
  {
    "name": "서울숲 방문자센터 화장실",
    "lat": 37.543,
    "lng": 127.0416,
    "address": "서울특별시 성동구 뚝섬로 273"
  },
  {
    "name": "성동구보건소",
    "lat": 37.567053,
    "lng": 127.033199,
    "address": "서울특별시 성동구 마장로23길 10"
  },
  {
    "name": "왕십리119안전센터",
    "lat": 37.5620324,
    "lng": 127.0354687,
    "address": "서울특별시 성동구고산자로 249 (도선동)"
  },
  {
    "name": "금호4가(얼음가게)",
    "lat": 37.5482,
    "lng": 127.0205,
    "address": "서울특별시 성동구 장터길 42"
  },
  {
    "name": "마장기사식당앞",
    "lat": 37.5656,
    "lng": 127.0468,
    "address": "서울특별시 성동구 마장로42길 25"
  },
  {
    "name": "서울특별시 성동구청사",
    "lat": 37.563319,
    "lng": 127.03686,
    "address": "서울특별시 성동구 고산자로 270"
  },
  {
    "name": "마장동주민센터",
    "lat": 37.578719,
    "lng": 126.8136575,
    "address": "서울특별시 성동구 마장로42길 11"
  },
  {
    "name": "응봉산팔각정",
    "lat": 37.5481,
    "lng": 127.0296,
    "address": "서울특별시 성동구 독서당로 362"
  },
  {
    "name": "용답어린이공원(매매센터)",
    "lat": 37.5606,
    "lng": 127.0644,
    "address": "서울특별시 성동구 용답동 234-1"
  },
  {
    "name": "자전거체험학습장",
    "lat": 37.5659,
    "lng": 127.0472,
    "address": "서울특별시 성동구 살곶이길 115"
  },
  {
    "name": "독서당공원",
    "lat": 37.5509,
    "lng": 127.0292,
    "address": "서울특별시 성동구 금호동1가 산 37-7"
  },
  {
    "name": "성동구립도서관",
    "lat": 37.5592346,
    "lng": 127.0349497,
    "address": "서울특별시 성동구 고산자로 10길 9"
  },
  {
    "name": "응봉 자전거대여소",
    "lat": 37.551,
    "lng": 127.0348,
    "address": "서울특별시 성동구 고산자로 125-18"
  },
  {
    "name": "성수1가제1동주민센터",
    "lat": 37.5421487,
    "lng": 127.0496209,
    "address": "서울특별시 성동구 뚝섬로3길 18"
  },
  {
    "name": "대림공원(논골새싹)",
    "lat": 37.5573,
    "lng": 127.025,
    "address": "서울특별시 성동구 난계로 56"
  },
  {
    "name": "서울숲 숲속놀이터 화장실",
    "lat": 37.5432,
    "lng": 127.0399,
    "address": "서울특별시 성동구 뚝섬로 273"
  },
  {
    "name": "성수문화복지회관",
    "lat": 37.545574,
    "lng": 127.046936,
    "address": "서울특별시 성동구 뚝섬로1길 43"
  },
  {
    "name": "살곶이 진출부",
    "lat": 37.5557,
    "lng": 127.0502,
    "address": "서울특별시 성동구 살곶이길 235"
  },
  {
    "name": "독서당인문아카데미센터",
    "lat": 37.546121,
    "lng": 127.0252935,
    "address": "서울특별시 성동구 금호로30"
  },
  {
    "name": "성수2가3동주민센터 화장실",
    "lat": 37.54823,
    "lng": 127.05515,
    "address": "서울특별시 성동구 광나루로2길 35"
  },
  {
    "name": "옥수동주민센터",
    "lat": 37.543565,
    "lng": 127.013418,
    "address": "서울특별시 성동구 독서당로 203, 옥수동 공공복합청사 (옥수동)"
  },
  {
    "name": "마장축산물시장",
    "lat": 37.5711,
    "lng": 127.0411,
    "address": "서울특별시 성동구 살곶이길 40"
  },
  {
    "name": "성동구립청계도서관(왕십리도선동복합청사)",
    "lat": 37.5678798,
    "lng": 127.0254533,
    "address": "서울특별시 성동구 마장로141"
  },
  {
    "name": "서울숲 커뮤니티센터(2층) 화장실",
    "lat": 37.5447,
    "lng": 127.0349,
    "address": "서울특별시 성동구 뚝섬로 273"
  },
  {
    "name": "열린금호교육문화관",
    "lat": 37.5525373,
    "lng": 127.0196603,
    "address": "서울특별시 성동구 무수막길 69"
  },
  {
    "name": "대현산관리사무소",
    "lat": 37.5539,
    "lng": 127.0273,
    "address": "서울특별시 성동구 금호로 100"
  },
  {
    "name": "금남시장뒤",
    "lat": 37.5489,
    "lng": 127.0224,
    "address": "서울특별시 성동구 금호산2가길 1"
  },
  {
    "name": "성동종합사회복지관",
    "lat": 37.5531163,
    "lng": 126.8331774,
    "address": "서울특별시 성동구 청계천호 506"
  },
  {
    "name": "살곶이체육공원",
    "lat": 37.554,
    "lng": 127.0504,
    "address": "서울특별시 성동구 중랑천서자전거길 209"
  },
  {
    "name": "청계천 3호 화장실",
    "lat": 37.5622774,
    "lng": 127.0493442,
    "address": "서울특별시 성동구 사근동길 65"
  },
  {
    "name": "용비쉼터",
    "lat": 37.5463,
    "lng": 127.0305,
    "address": "서울특별시 성동구 중랑천서자전거길 5"
  },
  {
    "name": "서울숲 습지생태원 화장실",
    "lat": 37.5484,
    "lng": 127.0391,
    "address": "서울특별시 성동구 뚝섬로 273"
  },
  {
    "name": "송정제방길",
    "lat": 37.5518,
    "lng": 127.0491,
    "address": "서울특별시 성동구 가람길 46"
  },
  {
    "name": "성수1가제2동공공복합청사(동주민센터)",
    "lat": 37.54648,
    "lng": 127.044215,
    "address": "서울특별시 성동구 왕십리로5길 3"
  },
  {
    "name": "새말빗물펌프장",
    "lat": 37.5559,
    "lng": 127.0697,
    "address": "서울특별시 성동구 송정동 93"
  },
  {
    "name": "무학봉근린공원",
    "lat": 37.562,
    "lng": 127.0272,
    "address": "서울특별시 성동구 왕십리로31길 29-1"
  },
  {
    "name": "송정농구장",
    "lat": 37.5527,
    "lng": 127.0665,
    "address": "서울특별시 성동구 중랑천동자전거길 366"
  },
  {
    "name": "서울숲 곤충식물원(내부) 화장실",
    "lat": 37.5414,
    "lng": 127.0392,
    "address": "서울특별시 성동구 뚝섬로 273"
  },
  {
    "name": "성동구립용답체육센터",
    "lat": 37.561862,
    "lng": 127.056777,
    "address": "서울특별시 성동구 천호대로78길 15-48"
  },
  {
    "name": "응봉동주민센터 화장실",
    "lat": 37.553194,
    "lng": 127.03346,
    "address": "서울특별시 성동구 독서당로 424"
  },
  {
    "name": "금호공원체육관",
    "lat": 37.5495098,
    "lng": 127.0189938,
    "address": "서울특별시 성동구 장터1길 20"
  },
  {
    "name": "금호정",
    "lat": 37.5517,
    "lng": 127.0172,
    "address": "서울특별시 성동구 금호산15길 15"
  },
  {
    "name": "왕십리제2동주민센터",
    "lat": 37.5617316,
    "lng": 127.0311833,
    "address": "서울특별시 성동구 무학봉15길 6"
  },
  {
    "name": "응봉개나리어린이공원",
    "lat": 37.5482,
    "lng": 127.0318,
    "address": "서울특별시 성동구 독서당로62가길 66"
  },
  {
    "name": "성삼공원",
    "lat": 37.5422,
    "lng": 127.06,
    "address": "서울특별시 성동구 성수이로18길 25-1"
  },
  {
    "name": "살곶이 궁터장",
    "lat": 37.5537,
    "lng": 127.042,
    "address": "서울특별시 성동구 살곶이길 313"
  },
  {
    "name": "서울숲 수변휴게실 화장실",
    "lat": 37.5445,
    "lng": 127.0377,
    "address": "서울특별시 성동구 뚝섬로 273"
  },
  {
    "name": "송정동주민센터",
    "lat": 37.554834,
    "lng": 127.069575,
    "address": "서울특별시 성동구 동일로43길 13"
  },
  {
    "name": "소월아트홀광장",
    "lat": 37.5591,
    "lng": 127.0358,
    "address": "서울특별시 성동구 왕십리로 281"
  },
  {
    "name": "옥수종합사회복지관",
    "lat": 37.5371208,
    "lng": 127.0078224,
    "address": "서울특별시 성동구 한림말길 16-5"
  },
  {
    "name": "청계천 1호 화장실",
    "lat": 37.5691534,
    "lng": 127.0454753,
    "address": "서울특별시 성동구 마장로35길 106"
  },
  {
    "name": "대현산체육관",
    "lat": 37.5541597,
    "lng": 127.0299175,
    "address": "서울특별시 성동구 독서당로63길 44"
  },
  {
    "name": "서울숲 커뮤니티센터(1층) 화장실",
    "lat": 37.5447,
    "lng": 127.0349,
    "address": "서울특별시 성동구 뚝섬로 273"
  },
  {
    "name": "장안종합사회복지관",
    "lat": 37.58411,
    "lng": 127.0342124,
    "address": "서울특별시 동대문구 한천로18길 48"
  },
  {
    "name": "중랑천 제5체육공원",
    "lat": 37.602301,
    "lng": 127.071756,
    "address": "서울특별시 동대문구 이문동 353-4"
  },
  {
    "name": "중랑천 제4체육공원",
    "lat": 37.592793,
    "lng": 127.06964,
    "address": "서울특별시 동대문구 휘경동 4-1"
  },
  {
    "name": "중랑천 파크골프장",
    "lat": 37.563521,
    "lng": 127.073471,
    "address": "서울특별시 동대문구 장안동 204-5"
  },
  {
    "name": "중랑천 제2체육공원",
    "lat": 37.575393,
    "lng": 127.077446,
    "address": "서울특별시 중랑구 면목동 727-24"
  },
  {
    "name": "중랑천 제4체육공원",
    "lat": 37.592793,
    "lng": 127.06964,
    "address": "서울특별시 동대문구 휘경동 4-1"
  },
  {
    "name": "중랑천 제1체육공원",
    "lat": 37.569172,
    "lng": 127.076404,
    "address": "서울특별시 동대문구 장안동 19-7"
  },
  {
    "name": "중랑천 제3체육공원",
    "lat": 37.584382,
    "lng": 127.073839,
    "address": "서울특별시 중랑구 면목동 1049-12"
  },
  {
    "name": "동대문종합사회복지관",
    "lat": 37.58416,
    "lng": 127.03423,
    "address": "서울특별시 동대문구 약령시로5길 22"
  },
  {
    "name": "중랑천 제2체육공원",
    "lat": 37.575393,
    "lng": 127.077446,
    "address": "서울특별시 중랑구 면목동 727-24"
  },
  {
    "name": "동대문종합사회복지관",
    "lat": 37.58416,
    "lng": 127.03423,
    "address": "서울특별시 동대문구 약령시로5길 22"
  },
  {
    "name": "중랑천 제5체육공원",
    "lat": 37.602301,
    "lng": 127.071756,
    "address": "서울특별시 동대문구 이문동 353-4"
  },
  {
    "name": "장안종합사회복지관",
    "lat": 37.58411,
    "lng": 127.0342124,
    "address": "서울특별시 동대문구 한천로18길 48"
  },
  {
    "name": "중랑천 파크골프장",
    "lat": 37.563521,
    "lng": 127.073471,
    "address": "서울특별시 동대문구 장안동 204-5"
  },
  {
    "name": "중랑천 제3체육공원",
    "lat": 37.584382,
    "lng": 127.073839,
    "address": "서울특별시 중랑구 면목동 1049-12"
  },
  {
    "name": "중랑천 제1체육공원",
    "lat": 37.569172,
    "lng": 127.076404,
    "address": "서울특별시 동대문구 장안동 19-7"
  },
  {
    "name": "제1주차장 화장실",
    "lat": 37.59856,
    "lng": 127.1146,
    "address": "서울특별시 중랑구 망우로91길 2"
  },
  {
    "name": "망우카페 화장실",
    "lat": 37.5988,
    "lng": 127.1145,
    "address": "서울특별시 중랑구 망우로91길 2"
  },
  {
    "name": "사색의길 화장실",
    "lat": 37.58583,
    "lng": 127.1076,
    "address": "서울특별시 중랑구 망우로91길 2-1"
  },
  {
    "name": "종암마을마당 공중화장실",
    "lat": 37.60153,
    "lng": 127.03899,
    "address": "서울특별시 성북구 종암로30길 114 (종암동)"
  },
  {
    "name": "금영빌딩 개방화장실",
    "lat": 37.60538,
    "lng": 127.011583,
    "address": "서울특별시 성북구 보국문로 10, 부광빌딩 (정릉동)"
  },
  {
    "name": "강산주유소 개방화장실",
    "lat": 37.5779766,
    "lng": 127.022713,
    "address": "서울특별시 성북구 보문로 27, 강산주유소 (보문동7가)"
  },
  {
    "name": "동일주유소 개방화장실",
    "lat": 37.5827718,
    "lng": 127.0201874,
    "address": "서울특별시 성북구 보문로 85, 동일주유소 (보문동5가)"
  },
  {
    "name": "청수프라자 1층 개방화장실",
    "lat": 37.6088183,
    "lng": 127.0079035,
    "address": "서울특별시 성북구 보국문로 50, 청수프라자 (정릉동)"
  },
  {
    "name": "장위뉴타워 개방화장실",
    "lat": 37.61027,
    "lng": 127.05684,
    "address": "서울특별시 성북구 화랑로 248, 장위뉴타워 (석관동)"
  },
  {
    "name": "성북펜싱체육관",
    "lat": 37.601718,
    "lng": 127.038264,
    "address": "서울특별시 성북구 종암로24가길 109(종암동)"
  },
  {
    "name": "돈암마을마당 공중화장실",
    "lat": 37.597895,
    "lng": 127.021166,
    "address": "서울특별시 성북구 북악산로 876 (돈암동)"
  },
  {
    "name": "GS세창주유소 개방화장실",
    "lat": 37.6087438,
    "lng": 127.0292091,
    "address": "서울특별시 성북구 동소문로 323, GS세창주유소 (길음동)"
  },
  {
    "name": "장위3동 주민센터",
    "lat": 37.6163845,
    "lng": 127.05468,
    "address": "서울특별시 성북구 한천로 657, 장위3동 주민센터 (장위동)"
  },
  {
    "name": "성북구공정무역센터",
    "lat": 37.5915551,
    "lng": 127.0182487,
    "address": "서울특별시 성북구 동소문로22길 33-8, 성북구 공정무역센터 (동선동1가)"
  },
  {
    "name": "롯데리아 성신여대점 개방화장실",
    "lat": 37.5936758,
    "lng": 127.0176442,
    "address": "서울특별시 성북구 동소문로 117(동선동4가)"
  },
  {
    "name": "돈암1동 주민센터",
    "lat": 37.6033711,
    "lng": 127.0241683,
    "address": "서울특별시 성북구 정릉로 394, 돈암1동 주민센터 (돈암동)"
  },
  {
    "name": "돈암119안전센터",
    "lat": 37.5908801,
    "lng": 127.0123329,
    "address": "서울특별시 성북구 보문로 192, 돈암119 안전센터 (삼선동4가)"
  },
  {
    "name": "서울예술치유허브",
    "lat": 37.5921399,
    "lng": 127.0368599,
    "address": "서울특별시 성북구 회기로3길 17, 서울예술치유허브 (종암동)"
  },
  {
    "name": "성북경찰서",
    "lat": 37.5897783,
    "lng": 127.0144003,
    "address": "서울특별시 성북구 보문로 170, 서울성북경찰서 (삼선동5가)"
  },
  {
    "name": "정릉3동 주민센터",
    "lat": 37.6089071,
    "lng": 127.0040646,
    "address": "서울특별시 성북구 솔샘로1길 6-3, 정릉3동 주민센터 (정릉동)"
  },
  {
    "name": "정릉역 여객화장실",
    "lat": 37.602667,
    "lng": 127.0113,
    "address": "서울특별시 성북구 아리랑로 지하122, 정릉역 (정릉동)"
  },
  {
    "name": "정릉아동보건지소",
    "lat": 37.6052065,
    "lng": 127.0118206,
    "address": "서울특별시 성북구 보국문로4길 8(정릉동, 대진빌딩)"
  },
  {
    "name": "돌곶이역 공중화장실",
    "lat": 37.6104972,
    "lng": 127.0542143,
    "address": "서울특별시 성북구 화랑로 지하243, 돌곶이역 (석관동)"
  },
  {
    "name": "상월곡실버복지센터",
    "lat": 37.6057825,
    "lng": 127.0458675,
    "address": "서울특별시 성북구 화랑로18길 6(상월곡동)"
  },
  {
    "name": "길음2동 주민센터",
    "lat": 37.606844,
    "lng": 127.0266357,
    "address": "서울특별시 성북구 삼양로2길 70, 길음2동 주민센터(길음3치안센터) (길음동)"
  },
  {
    "name": "종암박스파크",
    "lat": 37.603191,
    "lng": 127.033005,
    "address": "서울특별시 성북구 화랑로 6, 종암박스파크 (종암동)"
  },
  {
    "name": "노동사목빌딩 개방화장실",
    "lat": 37.5838746,
    "lng": 127.019866,
    "address": "서울특별시 성북구 보문로 95, 천주교서울대교구노동사회사목회관 (보문동5가)"
  },
  {
    "name": "정릉종합사회복지관",
    "lat": 37.6111229,
    "lng": 127.0008761,
    "address": "서울특별시 성북구 솔샘로5길 92, 정릉종합사회복지관 (정릉동)"
  },
  {
    "name": "성북주유소 개방화장실",
    "lat": 37.5876303,
    "lng": 127.0182065,
    "address": "서울특별시 성북구 보문로 142, 성북주유소 (보문동1가)"
  },
  {
    "name": "장위2 치안센터",
    "lat": 37.60999,
    "lng": 127.0513052,
    "address": "서울특별시 성북구 화랑로19길 85, 장위지구대 (장위동)"
  },
  {
    "name": "제일빌딩 개방화장실",
    "lat": 37.6063569,
    "lng": 127.0342329,
    "address": "서울특별시 성북구 오패산로 49, 제일빌딩 (하월곡동)"
  },
  {
    "name": "동선보건지소",
    "lat": 37.5935735,
    "lng": 127.0135453,
    "address": "서울특별시 성북구 아리랑로3길 8, 성북구보건지소 ,동선보건지소 (동소문동6가)"
  },
  {
    "name": "성북파출소",
    "lat": 37.5938382,
    "lng": 126.9961758,
    "address": "서울특별시 성북구 성북로 94(성북동)"
  },
  {
    "name": "돈암2동 주민센터",
    "lat": 37.5980029,
    "lng": 127.0103856,
    "address": "서울특별시 성북구 흥천사길 7, 돈암2동 주민센터 (돈암동)"
  },
  {
    "name": "성북학교밖청소년지원센터",
    "lat": 37.5940934,
    "lng": 127.0201491,
    "address": "서울특별시 성북구 동소문로26다길 8-2(동선동3가)"
  },
  {
    "name": "정릉실버복지센터",
    "lat": 37.608196,
    "lng": 127.004626,
    "address": "서울특별시 성북구 솔샘로 8, 정릉실버복지센터 (정릉동)"
  },
  {
    "name": "길음1동 주민센터",
    "lat": 37.6104456,
    "lng": 127.0172531,
    "address": "서울특별시 성북구 길음로 92, 길음1동 주민센터 (길음동)"
  },
  {
    "name": "종암동 주민센터",
    "lat": 37.5990053,
    "lng": 127.033013,
    "address": "서울특별시 성북구 종암로 98-8, 종암동주민센터 (종암동)"
  },
  {
    "name": "고려대역 공중화장실",
    "lat": 37.5904862,
    "lng": 127.0340463,
    "address": "서울특별시 성북구 종암로 지하1, 고려대역 (종암동)"
  },
  {
    "name": "성북예술창작터",
    "lat": 37.5899985,
    "lng": 127.0039226,
    "address": "서울특별시 성북구 성북로 23, 성북예술창작터 (성북동1가)"
  },
  {
    "name": "정릉천 공중화장실",
    "lat": 37.59264,
    "lng": 127.039659,
    "address": "없음"
  },
  {
    "name": "성북구의회",
    "lat": 37.5968341,
    "lng": 127.0240519,
    "address": "서울특별시 성북구 북악산로 949-60, 성북구의회청사 (종암동)"
  },
  {
    "name": "월곡지구대",
    "lat": 37.6044012,
    "lng": 127.0302127,
    "address": "서울특별시 성북구 종암로32길 5, 서울종암경찰서 월곡지구대 (하월곡동)"
  },
  {
    "name": "북선 공중화장실",
    "lat": 37.595842,
    "lng": 127.02688,
    "address": "서울특별시 성북구 북악산로 949-34, 북선공중화장실 (종암동)"
  },
  {
    "name": "안암역 공중화장실 지하1층",
    "lat": 37.5862122,
    "lng": 127.0276063,
    "address": "서울특별시 성북구 고려대로 지하 89, 안암역 (안암동5가)"
  },
  {
    "name": "종암동새날도서관",
    "lat": 37.5987916,
    "lng": 127.0348265,
    "address": "서울특별시 성북구 종암로 98-8, 종암동주민센터 (종암동)"
  },
  {
    "name": "석관동 주민센터",
    "lat": 37.6128336,
    "lng": 127.0610867,
    "address": "서울특별시 성북구 화랑로 296, 석관동 주민센터 (석관동)"
  },
  {
    "name": "정릉2파출소",
    "lat": 37.6045232,
    "lng": 127.0085164,
    "address": "서울특별시 성북구 정릉로26길 6, 정릉2파출소 (정릉동)"
  },
  {
    "name": "석관실버복지센터",
    "lat": 37.6066915,
    "lng": 127.0560694,
    "address": "서울특별시 성북구 화랑로32길 88, 성북구립 석관실버복지센터 (석관동)"
  },
  {
    "name": "정릉빌딩 개방화장실",
    "lat": 37.6042304,
    "lng": 127.0091681,
    "address": "서울특별시 성북구 정릉로 250, 정릉빌딩 (정릉동)"
  },
  {
    "name": "삼선동 주민센터",
    "lat": 37.590829,
    "lng": 127.014687,
    "address": "서울특별시 성북구 보문로 190, 삼선동 주민센터 (삼선동4가)"
  },
  {
    "name": "정릉도서관",
    "lat": 37.6121959,
    "lng": 127.0054937,
    "address": "서울특별시 성북구 정릉로 242, 성북아동청소년센터 (정릉동)"
  },
  {
    "name": "정릉2동 주민센터",
    "lat": 37.6044197,
    "lng": 127.0089432,
    "address": "서울특별시 성북구 정릉로26길 1, 정릉2동 주민센터 (정릉동)"
  },
  {
    "name": "에너비스 종암주유소 개방화장실",
    "lat": 37.5955237,
    "lng": 127.0356022,
    "address": "서울특별시 성북구 종암로 58(종암동)"
  },
  {
    "name": "상월곡동 공중화장실",
    "lat": 37.609429,
    "lng": 127.045406,
    "address": "서울특별시 성북구 장월로1가길 99 (상월곡동)"
  },
  {
    "name": "우리주유소 개방화장실",
    "lat": 37.6128071,
    "lng": 127.0606588,
    "address": "서울특별시 성북구 화랑로 292, 우리주유소 (석관동)"
  },
  {
    "name": "길음역 공중화장실",
    "lat": 37.603245,
    "lng": 127.022765,
    "address": "서울특별시 성북구 동소문로 지하248, 길음역 (길음동)"
  },
  {
    "name": "장위119 안전센터",
    "lat": 37.6155823,
    "lng": 127.055958,
    "address": "서울특별시 성북구 한천로 640, 장위119안전센터 (장위동)"
  },
  {
    "name": "정릉2차e아파트 상가개방화장실",
    "lat": 37.5990655,
    "lng": 127.0188052,
    "address": "서울특별시 성북구 북악산로 851(정릉동, 정릉2차 e-편한세상)"
  },
  {
    "name": "월곡꿈그림도서관",
    "lat": 37.604102,
    "lng": 127.04174,
    "address": "서울특별시 성북구 화랑로13길 17, 진각종 (하월곡동)"
  },
  {
    "name": "달빛마루도서관",
    "lat": 37.6049966,
    "lng": 127.0306806,
    "address": "서울특별시 성북구 종암로 167(하월곡동, 동일하이빌뉴시티)"
  },
  {
    "name": "월곡광장 공중화장실",
    "lat": 37.61189,
    "lng": 127.03974,
    "address": "서울특별시 성북구 장위로4길 49 (하월곡동)"
  },
  {
    "name": "성북구마을사회적경제센터",
    "lat": 37.6000644,
    "lng": 127.0292444,
    "address": "서울특별시 성북구 종암로25길 29, 성북구마을사회적경제센터 (종암동)"
  },
  {
    "name": "성북구립미술관",
    "lat": 37.594812,
    "lng": 126.9926754,
    "address": "서울특별시 성북구 성북로 134, 성북구립미술관, 글로벌빌리지센터 (성북동)"
  },
  {
    "name": "장위2동 주민센터",
    "lat": 37.6123639,
    "lng": 127.0522998,
    "address": "서울특별시 성북구 돌곶이로27길 12, 장위2동 주민센터 (장위동)"
  },
  {
    "name": "성북선잠박물관",
    "lat": 37.5931935,
    "lng": 126.9982055,
    "address": "서울특별시 성북구 성북로 96, 성북선잠박물관 (성북동)"
  },
  {
    "name": "석관파출소",
    "lat": 37.6088534,
    "lng": 127.055082,
    "address": "서울특별시 성북구 화랑로32가길 20, 석관파출소 (석관동)"
  },
  {
    "name": "맥도날드 삼선점 개방화장실",
    "lat": 37.5893943,
    "lng": 127.0070431,
    "address": "서울특별시 성북구 동소문로 13, 일화빌딩 (동소문동1가)"
  },
  {
    "name": "월곡배드민턴체육관",
    "lat": 37.608341,
    "lng": 127.041939,
    "address": "서울특별시 성북구 화랑로13길 130, 구립월곡배드민턴전용체욱관 (하월곡동)"
  },
  {
    "name": "성북장애인복지관",
    "lat": 37.6045302,
    "lng": 127.0455392,
    "address": "서울특별시 성북구 화랑로 130, 장애인복지관 (하월곡동)"
  },
  {
    "name": "성북우체국",
    "lat": 37.6072765,
    "lng": 127.0271572,
    "address": "서울특별시 성북구 동소문로 310, 서울성북우체국 (하월곡동)"
  },
  {
    "name": "북악골프연습장",
    "lat": 37.6024637,
    "lng": 126.9977082,
    "address": "서울특별시 성북구 북악산로 537-14(정릉동)"
  },
  {
    "name": "정릉1동커뮤니티센터",
    "lat": 37.6020603,
    "lng": 127.0182285,
    "address": "서울특별시 성북구 정릉로38가길 6, 정릉1동 커뮤니티센터 (정릉동)"
  },
  {
    "name": "성북정보화센터",
    "lat": 37.5857026,
    "lng": 127.0069635,
    "address": "서울특별시 성북구 삼선교로4길 47-1(삼선동1가)"
  },
  {
    "name": "성북구청",
    "lat": 37.5894118,
    "lng": 127.014644,
    "address": "서울특별시 성북구 보문로 168, 성북구청 (삼선동5가)"
  },
  {
    "name": "장위1동 주민센터",
    "lat": 37.6140724,
    "lng": 127.0435469,
    "address": "서울특별시 성북구 장위로 61, 장위1동 주민센터 (장위동)"
  },
  {
    "name": "월곡2동 주민센터",
    "lat": 37.6057783,
    "lng": 127.0458728,
    "address": "서울특별시 성북구 화랑로 152, 월곡2동 주민센터 (상월곡동)"
  },
  {
    "name": "성북성터 공중화장실",
    "lat": 37.592651,
    "lng": 126.991235,
    "address": "서울특별시 성북구 성북로23길 129-2 (성북동)"
  },
  {
    "name": "삼선주유소 개방화장실",
    "lat": 37.5879124,
    "lng": 127.0033863,
    "address": "서울특별시 성북구 창경궁로 324, 삼선주유소 (삼선동1가)"
  },
  {
    "name": "월곡종합사회복지관",
    "lat": 37.6088793,
    "lng": 127.0373083,
    "address": "서울특별시 성북구 오패산로16길 23, 월곡종합사회복지관 (하월곡동)"
  },
  {
    "name": "우이천 공중화장실",
    "lat": 37.61989,
    "lng": 127.05395,
    "address": "서울특별시 성북구 장월로 179 (장위동)"
  },
  {
    "name": "장위기사식당 개방화장실",
    "lat": 37.618577,
    "lng": 127.0457782,
    "address": "서울특별시 성북구 돌곶이로 215(장위동)"
  },
  {
    "name": "월곡1동 공중화장실",
    "lat": 37.606638,
    "lng": 127.034391,
    "address": "서울특별시 성북구 오패산로3길 77 (하월곡동)"
  },
  {
    "name": "동선동 주민센터",
    "lat": 37.5939411,
    "lng": 127.0182058,
    "address": "서울특별시 성북구 동소문로26길 27, 동선동주민센터 (동선동3가)"
  },
  {
    "name": "행복플러스 발달장애인센터",
    "lat": 37.604926,
    "lng": 127.046291,
    "address": "서울특별시 성북구 화랑로 134, 행복플러스발달장애인센터 (하월곡동)"
  },
  {
    "name": "성북구민체육관",
    "lat": 37.608526,
    "lng": 127.042325,
    "address": "서울특별시 성북구 화랑로13길 144, 성북구민체육관 (하월곡동)"
  },
  {
    "name": "성북구민회관",
    "lat": 37.5953982,
    "lng": 127.0079084,
    "address": "서울특별시 성북구 성북로4길 177, 성북구민회관 (돈암동)"
  },
  {
    "name": "북악숲속 공중화장실",
    "lat": 37.610746,
    "lng": 126.993554,
    "address": "서울특별시 성북구 정릉로 72 (정릉동)"
  },
  {
    "name": "안암지구대",
    "lat": 37.5868663,
    "lng": 127.0165253,
    "address": "서울특별시 성북구 지봉로21길 45, 안암지구대 (보문동3가)"
  },
  {
    "name": "성북세무서",
    "lat": 37.5880119,
    "lng": 127.0105812,
    "address": "서울특별시 성북구 삼선교로16길 13, 성북세무서 (삼선동3가)"
  },
  {
    "name": "롯데리아 종암점 개방화장실",
    "lat": 37.5983662,
    "lng": 127.0343768,
    "address": "서울특별시 성북구 종암로 91(종암동)"
  },
  {
    "name": "길음환승주차장",
    "lat": 37.6040441,
    "lng": 127.0236412,
    "address": "서울특별시 성북구 동소문로 260, 길음역환승주차장 (하월곡동)"
  },
  {
    "name": "기린빌딩 개방화장실",
    "lat": 37.6052171,
    "lng": 127.0244915,
    "address": "서울특별시 성북구 삼양로 22, 기린빌딩 (길음동)"
  },
  {
    "name": "길음지구대",
    "lat": 37.6105603,
    "lng": 127.0170738,
    "address": "서울특별시 성북구 삼양로13길 51, 길음지구대 (길음동)"
  },
  {
    "name": "종암파출소",
    "lat": 37.600561,
    "lng": 127.011036,
    "address": "서울특별시 성북구 종암로23길 52, 서울종암경찰서 종암파출소 (종암동)"
  },
  {
    "name": "개운산스포츠센터",
    "lat": 37.5965518,
    "lng": 127.0259582,
    "address": "서울특별시 성북구 북악산로 949-60, 개운산스포츠센터 (종암동)"
  },
  {
    "name": "성북소방서",
    "lat": 37.6023683,
    "lng": 127.0316021,
    "address": "서울특별시 성북구 종암로27길 3, 성북소방서 (종암동)"
  },
  {
    "name": "안암동 공중화장실",
    "lat": 37.585442,
    "lng": 127.021389,
    "address": "서울특별시 성북구 고려대로8길 7-2 (안암동2가)"
  },
  {
    "name": "한성대입구역 공중화장실",
    "lat": 37.588374,
    "lng": 127.003713,
    "address": "서울특별시 성북구 삼선교로 지하1, 한성대입구역 (삼선동1가)"
  },
  {
    "name": "상월곡역 공중화장실",
    "lat": 37.6062305,
    "lng": 127.0461242,
    "address": "서울특별시 성북구 화랑로 지하157, 상월곡역 (상월곡동)"
  },
  {
    "name": "성북아동청소년센터",
    "lat": 37.6047606,
    "lng": 127.0103643,
    "address": "서울특별시 성북구 정릉로 242, 성북아동청소년센터 (정릉동)"
  },
  {
    "name": "아리랑주유소 개방화장실",
    "lat": 37.6004167,
    "lng": 127.0141767,
    "address": "서울특별시 성북구 아리랑로 96, 아리랑 주유소 (정릉동)"
  },
  {
    "name": "성심빌딩 개방화장실",
    "lat": 37.6002176,
    "lng": 127.0193885,
    "address": "서울특별시 성북구 동소문로 203(돈암동)"
  },
  {
    "name": "안암동 주민센터",
    "lat": 37.585846,
    "lng": 127.021343,
    "address": "서울특별시 성북구 고려대로 16, 안암동주민센터 (안암동2가)"
  },
  {
    "name": "북악주유소 개방화장실",
    "lat": 37.6054308,
    "lng": 127.0078928,
    "address": "서울특별시 성북구 정릉로 218(정릉동)"
  },
  {
    "name": "정릉1호 공중화장실",
    "lat": 37.618859,
    "lng": 127.005531,
    "address": "서울특별시 성북구 보국문로30길 64 (정릉동)"
  },
  {
    "name": "성북동 주민센터",
    "lat": 37.5910096,
    "lng": 127.0013397,
    "address": "서울특별시 성북구 성북로 37, 성북동 주민센터 (성북동1가)"
  },
  {
    "name": "성북정보도서관",
    "lat": 37.6047878,
    "lng": 127.0503741,
    "address": "서울특별시 성북구 화랑로18자길 13, 성북정보도서관 (상월곡동)"
  },
  {
    "name": "성북구보건소",
    "lat": 37.6026988,
    "lng": 127.0373469,
    "address": "서울특별시 성북구 화랑로 63, 성북구보건소 (하월곡동)"
  },
  {
    "name": "서경로꿈마루도서관",
    "lat": 37.6113602,
    "lng": 127.0135837,
    "address": "서울특별시 성북구 서경로 94-1, 서경로꿈마루도서관 (정릉동)"
  },
  {
    "name": "정릉파출소",
    "lat": 37.6160332,
    "lng": 127.0063998,
    "address": "서울특별시 성북구 솔샘로 111, 정릉지구대 (정릉동)"
  },
  {
    "name": "성북청소년문화의집",
    "lat": 37.6155383,
    "lng": 127.0082807,
    "address": "서울특별시 성북구 솔샘로 107(정릉동)"
  },
  {
    "name": "길음종합사회복지관",
    "lat": 37.6067151,
    "lng": 127.0263436,
    "address": "서울특별시 성북구 삼양로2길 55, 길음종합사회복지관 (길음동)"
  },
  {
    "name": "보문역 공중화장실",
    "lat": 37.585331,
    "lng": 127.017197,
    "address": "서울특별시 성북구 보문로 지하116, 보문역 (보문동1가)"
  },
  {
    "name": "해오름휘트니스센터",
    "lat": 37.594056,
    "lng": 127.010497,
    "address": "서울특별시 성북구 성북로4길 52(돈암동, 한신한진아파트)"
  },
  {
    "name": "안암교회 개방화장실",
    "lat": 37.589549,
    "lng": 127.022279,
    "address": "서울특별시 성북구 보문로30가길 41-6(안암동1가)"
  },
  {
    "name": "서울국유림관리소",
    "lat": 37.6043956,
    "lng": 127.0488931,
    "address": "서울특별시 성북구 화랑로18가길 30, 서울국유림관리소 (상월곡동)"
  },
  {
    "name": "성북종합레포츠타운",
    "lat": 37.6101713,
    "lng": 127.0677795,
    "address": "서울특별시 성북구 한천로58길 307, 성북종합레포츠타운 (석관동)"
  },
  {
    "name": "알뜰원천주유소 개방화장실",
    "lat": 37.6148391,
    "lng": 127.0507189,
    "address": "서울특별시 성북구 돌곶이로 142, 알뜰원천주유소 (장위동)"
  },
  {
    "name": "신방주유소 개방화장실",
    "lat": 37.5855819,
    "lng": 127.0315171,
    "address": "서울특별시 성북구 안암로 111, 신방주유소 (안암동5가)"
  },
  {
    "name": "오동근린 공원화장실",
    "lat": 37.6199014,
    "lng": 127.0346397,
    "address": "서울특별시 성북구 화랑로13길 144, 성북구민체육관 (하월곡동)"
  },
  {
    "name": "해오름도서관",
    "lat": 37.594056,
    "lng": 127.010497,
    "address": "서울특별시 성북구 성북로4길 52(돈암동, 한신한진아파트)"
  },
  {
    "name": "육아종합지원센터(보문)",
    "lat": 37.5839277,
    "lng": 127.0189896,
    "address": "서울특별시 성북구 지봉로24길 26(보문동5가)"
  },
  {
    "name": "중랑천 이동식 공중화장실",
    "lat": 37.612821,
    "lng": 127.070769,
    "address": "없음"
  },
  {
    "name": "정평빌딩 개방화장실",
    "lat": 37.603668,
    "lng": 127.0408475,
    "address": "서울특별시 성북구 화랑로 103(하월곡동)"
  },
  {
    "name": "광덕주유소 개방화장실",
    "lat": 37.5831131,
    "lng": 127.0195703,
    "address": "서울특별시 성북구 보문로 89, 광덕주유소 (보문동5가)"
  },
  {
    "name": "월곡구민운동장",
    "lat": 37.608854,
    "lng": 127.041465,
    "address": "서울특별시 성북구 화랑로13길 144, 성북구민체육관 (하월곡동)"
  },
  {
    "name": "청수도서관",
    "lat": 37.611746,
    "lng": 127.010789,
    "address": "서울특별시 성북구 보국문로16가길 20(정릉동)"
  },
  {
    "name": "성북노인종합복지관",
    "lat": 37.5977127,
    "lng": 127.0342241,
    "address": "서울특별시 성북구 종암로15길 10, 성북노인종합복지관 (종암동)"
  },
  {
    "name": "정릉1동 주민센터",
    "lat": 37.6014001,
    "lng": 127.0144201,
    "address": "서울특별시 성북구 정릉로38마길 33, 정릉1동 주민센터 (정릉동)"
  },
  {
    "name": "강산제2주유소 개방화장실",
    "lat": 37.6091669,
    "lng": 127.0078852,
    "address": "서울특별시 성북구 보국문로 52, 강산제2주유소 (정릉동)"
  },
  {
    "name": "월곡청소년센터",
    "lat": 37.6106901,
    "lng": 127.0403384,
    "address": "서울특별시 성북구 화랑로13가길 110, 월곡청소년센터 (하월곡동)"
  },
  {
    "name": "장삼주유소 개방화장실",
    "lat": 37.6135872,
    "lng": 127.058013,
    "address": "서울특별시 성북구 한천로 612, 장삼주유소 (장위동)"
  },
  {
    "name": "일신건영상가 개방화장실",
    "lat": 37.6008239,
    "lng": 127.0103955,
    "address": "서울특별시 성북구 아리랑로 89(돈암동, 일신건영휴먼빌아파트)"
  },
  {
    "name": "월곡역 공중화장실",
    "lat": 37.6013172,
    "lng": 127.0391313,
    "address": "서울특별시 성북구 월곡로 지하107, 월곡역 (하월곡동)"
  },
  {
    "name": "육아종합지원센터(월곡)",
    "lat": 37.6056272,
    "lng": 127.0378313,
    "address": "서울특별시 성북구 오패산로10길 19, 성북구육아종합지원센터 (하월곡동)"
  },
  {
    "name": "재정제2주유소 개방화장실",
    "lat": 37.6102644,
    "lng": 127.0205436,
    "address": "서울특별시 성북구 삼양로 78, 현대주유소 (길음동)"
  },
  {
    "name": "월곡인조잔디구장",
    "lat": 37.608919,
    "lng": 127.043698,
    "address": "서울특별시 성북구 화랑로13길 144, 월곡인조잔디구장 (하월곡동)"
  },
  {
    "name": "월곡1동 주민센터",
    "lat": 37.6104979,
    "lng": 127.0335588,
    "address": "서울특별시 성북구 오패산로 96, 월곡1동 주민센터 (하월곡동)"
  },
  {
    "name": "돈암지구대",
    "lat": 37.5972335,
    "lng": 127.0121746,
    "address": "서울특별시 성북구 아리랑로5길 54, 돈암지구대 (돈암동)"
  },
  {
    "name": "의릉",
    "lat": 37.605134,
    "lng": 127.059424,
    "address": "서울특별시 성북구 화랑로32길 146-20, 문화재청의릉지구관리소 (석관동)"
  },
  {
    "name": "정릉교회 개방화장실",
    "lat": 37.6030365,
    "lng": 127.0121839,
    "address": "서울특별시 성북구 정릉로 280, 정릉교회 (정릉동)"
  },
  {
    "name": "성북청소년미래지원센터",
    "lat": 37.6070184,
    "lng": 127.0337432,
    "address": "서울특별시 성북구 오패산로3길 87, 성북청소년미래지원센터 (하월곡동)"
  },
  {
    "name": "국민건강보험공단 성북지사",
    "lat": 37.6077072,
    "lng": 127.0279962,
    "address": "서울특별시 성북구 화랑로 35, 국민건강보험공단성북지사 (하월곡동)"
  },
  {
    "name": "성북2동 공중화장실",
    "lat": 37.59614,
    "lng": 126.99372,
    "address": "서울특별시 성북구 성북로26가길 9 (성북동)[*미고시]"
  },
  {
    "name": "석관동미리내도서관",
    "lat": 37.6133688,
    "lng": 127.065357,
    "address": "서울특별시 성북구 한천로66길 203(석관동)"
  },
  {
    "name": "안암역 공중화장실 지하2층",
    "lat": 37.5862122,
    "lng": 127.0276063,
    "address": "서울특별시 성북구 고려대로 지하89, 안암역 (안암동5가)"
  },
  {
    "name": "성신여대입구역 공중화장실",
    "lat": 37.5928468,
    "lng": 127.0142714,
    "address": "서울특별시 성북구 동소문로 지하102, 성신여대입구역 (동선동4가)"
  },
  {
    "name": "북한산보국문역 여객화장실",
    "lat": 37.612216,
    "lng": 127.00596,
    "address": "서울특별시 성북구 보국문로 지하88, 북한산보국문역 (정릉동)"
  },
  {
    "name": "보문동 주민센터",
    "lat": 37.5803581,
    "lng": 127.0224787,
    "address": "서울특별시 성북구 안암로3길 35, 보문동주민센터 (보문동7가)"
  },
  {
    "name": "정릉어울림마당 공중화장실",
    "lat": 37.61273,
    "lng": 127.00663,
    "address": "서울특별시 성북구 솔샘로17길 4 (정릉동)"
  },
  {
    "name": "정릉4동 주민센터",
    "lat": 37.6133352,
    "lng": 127.006446,
    "address": "서울특별시 성북구 보국문로 106-1, 정릉4동 주민센터 (정릉동)"
  },
  {
    "name": "숭인시장",
    "lat": 37.6131603,
    "lng": 127.0295164,
    "address": "서울특별시 강북구 도봉로 45"
  },
  {
    "name": "미아동복합청사 화장실",
    "lat": 37.6270621,
    "lng": 127.0269669,
    "address": "서울특별시 강북구 솔매로49길 14 (미아동, 미아동 복합청사, 미아문화정보도서관)"
  },
  {
    "name": "우이동 주민센터",
    "lat": 37.6479249,
    "lng": 127.0119122,
    "address": "서울특별시 강북구 삼양로139길 49"
  },
  {
    "name": "신일교회",
    "lat": 37.6232688,
    "lng": 127.027689,
    "address": "서울특별시 강북구 도봉로 162 (미아동, 신일교회)"
  },
  {
    "name": "삼양사거리역 화장실",
    "lat": 37.6219509,
    "lng": 127.0202607,
    "address": "서울특별시 강북구 미아동 745-142"
  },
  {
    "name": "미아문화정보도서관",
    "lat": 37.6270621,
    "lng": 127.0269669,
    "address": "서울특별시 강북구 솔매로49길 14"
  },
  {
    "name": "우이동 교통광장 공중화장실",
    "lat": 37.6628493,
    "lng": 127.0131782,
    "address": "서울특별시 강북구 삼양로 672 (우이동, 만남의 집)"
  },
  {
    "name": "서울현대병원 화장실",
    "lat": 37.6402518,
    "lng": 127.0285046,
    "address": "서울특별시 강북구 도봉로 374 (번동, 서울특별시현대병원)"
  },
  {
    "name": "강명빌딩 민간 개방화장실",
    "lat": 37.6217926,
    "lng": 127.0275862,
    "address": "서울특별시 강북구 도봉로 145 (미아동)"
  },
  {
    "name": "수유동성당 개방화장실",
    "lat": 37.6426442,
    "lng": 127.0217376,
    "address": "서울특별시 강북구 삼각산로 165 (수유동, 수유동천주교회)"
  },
  {
    "name": "북서울꿈의숲(상상톡톡미술관)",
    "lat": 37.6217709,
    "lng": 127.0411741,
    "address": "서울특별시 강북구 월계로 173"
  },
  {
    "name": "강북장애인복지관",
    "lat": 37.628768,
    "lng": 127.039043,
    "address": "서울특별시 강북구 오현로 189"
  },
  {
    "name": "강북소방서",
    "lat": 37.6334146,
    "lng": 127.0375183,
    "address": "서울특별시 강북구 한천로911"
  },
  {
    "name": "꽃샘길 화장실",
    "lat": 37.6291763,
    "lng": 127.0355019,
    "address": "서울특별시 강북구 번동 산23-36"
  },
  {
    "name": "신일병원 화장실",
    "lat": 37.6346208,
    "lng": 127.0218209,
    "address": "서울특별시 강북구 덕릉로 73 (수유동, 신일병원)"
  },
  {
    "name": "윤극영가옥 1층 화장실",
    "lat": 37.646423,
    "lng": 127.0108985,
    "address": "서울특별시 강북구 인수봉로84길 5"
  },
  {
    "name": "빨래골 어울쉼터 앞 화장실",
    "lat": 37.6276026,
    "lng": 127.0094774,
    "address": "서울특별시 강북구 수유동 산127-17"
  },
  {
    "name": "벌리어린이공원 화장실",
    "lat": 37.6275756,
    "lng": 127.044429,
    "address": "서울특별시 강북구 번동 240"
  },
  {
    "name": "솔샘어린이공원화장실",
    "lat": 37.6181505,
    "lng": 127.027039,
    "address": "서울특별시 강북구 솔샘로65길 19 (미아동)"
  },
  {
    "name": "Y-스퀘어",
    "lat": 37.613701,
    "lng": 127.0305142,
    "address": "서울특별시 강북구 도봉로 52"
  },
  {
    "name": "번동 가로공원 공중화장실",
    "lat": 37.6299505,
    "lng": 127.042874,
    "address": "서울특별시 강북구 번동 612-3"
  },
  {
    "name": "번동5단지 종합사회복지관 화장실",
    "lat": 37.633111,
    "lng": 127.0359064,
    "address": "서울특별시 강북구 한천로115길 20 (번동, 번동주공5단지아파트)"
  },
  {
    "name": "강북문화예술회관",
    "lat": 37.6407905,
    "lng": 127.0134278,
    "address": "서울특별시 강북구 삼각산로 85"
  },
  {
    "name": "은모루어린이공원 화장실",
    "lat": 37.6422317,
    "lng": 127.0270125,
    "address": "서울특별시 강북구 도봉로95길 48, 은모루어린이공원 공중화장실 (수유동)"
  },
  {
    "name": "강북구보건소",
    "lat": 37.6322105,
    "lng": 127.0388226,
    "address": "서울특별시 강북구 한천로 897"
  },
  {
    "name": "운산어린이공원 화장실",
    "lat": 37.6320554,
    "lng": 127.0255464,
    "address": "서울특별시 강북구 도봉로72길 28, 운산어린이공원 공중화장실 (미아동)"
  },
  {
    "name": "신성교회 민간 개방화장실",
    "lat": 37.6169575,
    "lng": 127.0282721,
    "address": "서울특별시 강북구 솔샘로 326"
  },
  {
    "name": "자전거 주차장",
    "lat": 37.6380167,
    "lng": 127.0247189,
    "address": "서울특별시 강북구 도봉로85길 10"
  },
  {
    "name": "S-OIL 에덴주유소",
    "lat": 37.621613,
    "lng": 127.0456194,
    "address": "서울특별시 강북구 월계로 195 (번동, 에덴주유소)"
  },
  {
    "name": "4.19민주묘지역 화장실",
    "lat": 37.6420459,
    "lng": 127.013416,
    "address": "서울특별시 강북구 우이동 72-186"
  },
  {
    "name": "북한산우이역 화장실",
    "lat": 37.6149927,
    "lng": 127.0300333,
    "address": "서울특별시 강북구 우이동 16-20"
  },
  {
    "name": "강북구 사회적경제지원센터\n1층 개방화장실",
    "lat": 37.6231399,
    "lng": 127.0187144,
    "address": "서울특별시 강북구 삼양로 47길 5"
  },
  {
    "name": "SK네트웍스(주) 매일주유소",
    "lat": 37.6227977,
    "lng": 127.0191356,
    "address": "서울특별시 강북구 삼양로 217 (미아동)"
  },
  {
    "name": "강북웰빙스포츠센터",
    "lat": 37.6305856,
    "lng": 127.0378057,
    "address": "서울특별시 강북구 오현로31길 51"
  },
  {
    "name": "강북구육아종합지원센터",
    "lat": 37.64076,
    "lng": 127.0123,
    "address": "서울특별시 강북구 인수봉로 66길 9"
  },
  {
    "name": "미아사거리 화장실",
    "lat": 37.6149927,
    "lng": 127.0300333,
    "address": "서울특별시 강북구 미아동 66-1"
  },
  {
    "name": "응달마을어린이공원 화장실",
    "lat": 37.618328,
    "lng": 127.0246048,
    "address": "서울특별시 강북구 송천동 860-116"
  },
  {
    "name": "오동공원 유아숲체험장화장실",
    "lat": 37.6326958,
    "lng": 127.0324505,
    "address": "서울특별시 강북구 번동 산17-10"
  },
  {
    "name": "㈜지에스이엔알 미아주유소",
    "lat": 37.6199964,
    "lng": 127.0290304,
    "address": "서울특별시 강북구 도봉로 124 (미아동)"
  },
  {
    "name": "강북소방서 앞 공중화장실",
    "lat": 37.6345315,
    "lng": 127.0361469,
    "address": "서울특별시 강북구 한천로 914 (번동)"
  },
  {
    "name": "삼각산어린이도서관",
    "lat": 37.6151877,
    "lng": 127.0207587,
    "address": "서울특별시 강북구 삼양로19길 34"
  },
  {
    "name": "화계사 민간 개방화장실",
    "lat": 37.6326087,
    "lng": 127.0073144,
    "address": "서울특별시 강북구 화계사길 117"
  },
  {
    "name": "㈜석산에너지",
    "lat": 37.6316335,
    "lng": 127.0179394,
    "address": "서울특별시 강북구 삼양로 316 (수유동)"
  },
  {
    "name": "솔샘문화정보도서관",
    "lat": 37.620458,
    "lng": 127.0124383,
    "address": "서울특별시 강북구 솔샘로 177"
  },
  {
    "name": "GS칼텍스 수유동주유소 화장실",
    "lat": 37.6421556,
    "lng": 127.0295862,
    "address": "서울특별시 강북구 도봉로 395 (수유동)"
  },
  {
    "name": "우이동 가족캠핑장",
    "lat": 37.6654419,
    "lng": 127.0115412,
    "address": "서울특별시 강북구 우이동 317"
  },
  {
    "name": "북한산유아숲체험장 화장실",
    "lat": 37.6399962,
    "lng": 127.0223145,
    "address": "서울특별시 강북구 산 108-19"
  },
  {
    "name": "북서울요양병원 화장실",
    "lat": 37.6381323,
    "lng": 127.0300461,
    "address": "서울특별시 강북구 한천로 1002 (번동, 북서울특별시요양병원)"
  },
  {
    "name": "수유마을시장 공영주차장",
    "lat": 37.6305712,
    "lng": 127.0218737,
    "address": "서울특별시 강북구 도봉로69길 29"
  },
  {
    "name": "이준열사 묘역 앞 화장실",
    "lat": 37.6432211,
    "lng": 127.001996,
    "address": "서울특별시 강북구 4.19로 108-15"
  },
  {
    "name": "북서울꿈의숲(메이린 식당)",
    "lat": 37.6217709,
    "lng": 127.0411741,
    "address": "서울특별시 강북구 월계로 173"
  },
  {
    "name": "햇빛병원 화장실",
    "lat": 37.6157301,
    "lng": 127.0302217,
    "address": "서울특별시 강북구 도봉로 74 (미아동)"
  },
  {
    "name": "수유1동 공동육아나눔터",
    "lat": 37.6321281,
    "lng": 127.022034,
    "address": "서울특별시 강북구 수유로12길 63, 101동 2층"
  },
  {
    "name": "구민건강관리센터",
    "lat": 37.617008,
    "lng": 127.0156229,
    "address": "서울특별시 강북구 삼양로19길 154"
  },
  {
    "name": "북서울꿈의숲(야외)",
    "lat": 37.6217709,
    "lng": 127.0411741,
    "address": "서울특별시 강북구 월계로 173"
  },
  {
    "name": "북서울꿈의숲(라포레스타)",
    "lat": 37.6217709,
    "lng": 127.0411741,
    "address": "서울특별시 강북구 월계로 173"
  },
  {
    "name": "우정 배드민턴장 화장실",
    "lat": 37.6298562,
    "lng": 127.0340769,
    "address": "서울특별시 강북구 번2동 산20-1"
  },
  {
    "name": "강북구의회 공중화장실",
    "lat": 37.6406309,
    "lng": 127.0141244,
    "address": "서울특별시 강북구 삼각산로 89"
  },
  {
    "name": "북서울꿈의숲(관리소1층)",
    "lat": 37.62177,
    "lng": 127.0411741,
    "address": "서울특별시 강북구 월계로 173"
  },
  {
    "name": "삼양파출소 화장실",
    "lat": 37.6248025,
    "lng": 127.0181839,
    "address": "서울특별시 강북구 삼양로 239-1 (미아동)"
  },
  {
    "name": "북서울꿈의숲 전망대(2.3층)",
    "lat": 37.6217709,
    "lng": 127.0411741,
    "address": "서울특별시 강북구 월계로 173"
  },
  {
    "name": "북서울꿈의숲(아트센터지상1층)",
    "lat": 37.6217709,
    "lng": 127.0411741,
    "address": "서울특별시 강북구 월계로 173"
  },
  {
    "name": "율곡화장실",
    "lat": 37.6270006,
    "lng": 127.0311571,
    "address": "서울특별시 강북구 오패산로52사길 24, 율곡화장실 (미아동)"
  },
  {
    "name": "서울강북경찰서 본관 화장실",
    "lat": 37.6371974,
    "lng": 127.0273048,
    "address": "서울특별시 강북구 오패산로 406 (번동, 서울강북경찰서)"
  },
  {
    "name": "포근한요양병원 화장실",
    "lat": 37.6322916,
    "lng": 127.0241391,
    "address": "서울특별시 강북구 도봉로 266 (미아동, 포근한노인전문병원)"
  },
  {
    "name": "수유1동주민센터",
    "lat": 37.6300516,
    "lng": 127.0175594,
    "address": "서울특별시 강북구 삼양로 299"
  },
  {
    "name": "색동어린이공원 화장실",
    "lat": 37.6331585,
    "lng": 127.0206488,
    "address": "서울특별시 강북구 삼양로80나길 52, 색동공원공영주차장 (수유동)"
  },
  {
    "name": "송중문화정보도서관",
    "lat": 37.61832,
    "lng": 127.0299758,
    "address": "서울특별시 강북구 도봉로20나길 6"
  },
  {
    "name": "수유프라자 개방화장실",
    "lat": 37.6316665,
    "lng": 127.0234632,
    "address": "서울특별시 강북구 도봉로 261 (수유동, 삼호아파트, 수유프라자)"
  },
  {
    "name": "화계역 화장실",
    "lat": 37.6335506,
    "lng": 127.01755,
    "address": "서울특별시 강북구 수유동 472-677"
  },
  {
    "name": "강북청소년문화정보도서관",
    "lat": 37.6230267,
    "lng": 127.0216593,
    "address": "서울특별시 강북구 삼양로54길 68"
  },
  {
    "name": "롯데마트",
    "lat": 37.6255737,
    "lng": 127.0177184,
    "address": "서울특별시 강북구 삼양로 247"
  },
  {
    "name": "강북우리들병원 화장실",
    "lat": 37.6424949,
    "lng": 127.0226569,
    "address": "서울특별시 강북구 한천로 1083 (수유동, 광산타워)"
  },
  {
    "name": "대한병원 화장실",
    "lat": 37.6402518,
    "lng": 127.0285046,
    "address": "서울특별시 강북구 도봉로 301 (수유동, 대한병원)"
  },
  {
    "name": "성신병원 화장실",
    "lat": 37.6249464,
    "lng": 127.0263162,
    "address": "서울특별시 강북구 도봉로 181 (미아동, 성신병원)"
  },
  {
    "name": "롯데백화점",
    "lat": 37.6142156,
    "lng": 127.030526,
    "address": "서울특별시 강북구 도봉로 62"
  },
  {
    "name": "씨지비수유점 민간 개방화장실",
    "lat": 37.6326087,
    "lng": 127.0179568,
    "address": "서울특별시 강북구 도봉로 399"
  },
  {
    "name": "장수 배드민턴장 화장실",
    "lat": 37.6330347,
    "lng": 127.0286097,
    "address": "서울특별시 강북구 미아동 산1-13"
  },
  {
    "name": "백련사입구 공중화장실",
    "lat": 37.6450483,
    "lng": 127.0041352,
    "address": "서울특별시 강북구 4.19로20길 19 (수유동, 백련탐방지원센터)"
  },
  {
    "name": "골프장 옆 화장실(오현적)",
    "lat": 37.6298562,
    "lng": 127.0340769,
    "address": "서울특별시 강북구 번2동 122"
  },
  {
    "name": "청산 배드민턴장 화장실",
    "lat": 37.6298562,
    "lng": 127.0340769,
    "address": "서울특별시 강북구 번2동 산17-5"
  },
  {
    "name": "오얏골어린이공원 화장실",
    "lat": 37.6340485,
    "lng": 127.034285,
    "address": "서울특별시 강북구 번동 228"
  },
  {
    "name": "수유문화정보도서관",
    "lat": 37.6300774,
    "lng": 127.0176093,
    "address": "서울특별시 강북구 삼양로 299"
  },
  {
    "name": "한빛어린이공원 화장실",
    "lat": 37.627697,
    "lng": 127.0227966,
    "address": "서울특별시 강북구 솔매로41길 48, 한빛어린이공원 공중화장실 (미아동)"
  },
  {
    "name": "수유3동주민센터 화장실",
    "lat": 37.6387067,
    "lng": 127.0230924,
    "address": "서울특별시 강북구 노해로 36 (수유동, 수유3동 주민센터)"
  },
  {
    "name": "강북구청 외부 화장실",
    "lat": 37.6397767,
    "lng": 127.0255184,
    "address": "서울특별시 강북구 도봉로89길 13 (수유동, 강북구청)"
  },
  {
    "name": "우이동 만남의광장 화장실",
    "lat": 37.661854,
    "lng": 127.0077056,
    "address": "서울특별시 강북구 우이동 186-5"
  },
  {
    "name": "광명빌딩 민간 개방화장실",
    "lat": 37.6326087,
    "lng": 127.01794,
    "address": "서울특별시 강북구 삼양로 265"
  },
  {
    "name": "수유3파출소 화장실",
    "lat": 37.6443456,
    "lng": 127.026571,
    "address": "서울특별시 강북구 한천로150길 76 (수유동, 수유3파출소)"
  },
  {
    "name": "수유역 화장실",
    "lat": 37.6402884,
    "lng": 127.0242053,
    "address": "서울특별시 강북구 수유동 140"
  },
  {
    "name": "번3파출소 화장실",
    "lat": 37.6235846,
    "lng": 127.048155,
    "address": "서울특별시 강북구 월계로 227 (번동, 번3파출소)"
  },
  {
    "name": "인수동 공영주차장",
    "lat": 37.6360665,
    "lng": 127.0184104,
    "address": "서울특별시 강북구 삼양로92길 34"
  },
  {
    "name": "수유중앙시장 개방화장실",
    "lat": 37.6403461,
    "lng": 127.0213277,
    "address": "서울특별시 강북구 노해로17길 21 (수유동, 수유중앙시장)"
  },
  {
    "name": "강북청년창업마루 건물 화장실",
    "lat": 37.64742409,
    "lng": 127.0173258,
    "address": "서울특별시 강북구 노해로 23길 123"
  },
  {
    "name": "북서울고속주유소",
    "lat": 37.6401448,
    "lng": 127.017205,
    "address": "서울특별시 강북구 삼양로 410 (수유동)"
  },
  {
    "name": "수유1파출소 화장실",
    "lat": 37.6306502,
    "lng": 127.0175895,
    "address": "서울특별시 강북구 삼양로 305 (수유동, 수유1동파출소)"
  },
  {
    "name": "SK세원주유소 화장실",
    "lat": 37.6342596,
    "lng": 127.037732,
    "address": "서울특별시 강북구 한천로 918 (번동)"
  },
  {
    "name": "솔샘지구대 화장실",
    "lat": 37.6163126,
    "lng": 127.03039,
    "address": "서울특별시 강북구 오현로 4 (미아동)"
  },
  {
    "name": "미아지구대 화장실",
    "lat": 37.6201125,
    "lng": 127.0282687,
    "address": "서울특별시 강북구 도봉로 127 (미아동, 미아지구대)"
  },
  {
    "name": "삼양체육과학공원 화장실",
    "lat": 37.6245552,
    "lng": 127.0111552,
    "address": "서울특별시 강북구 인수봉로17길 26"
  },
  {
    "name": "번3동주민센터",
    "lat": 37.625858,
    "lng": 127.0465,
    "address": "서울특별시 강북구 한천로105길21"
  },
  {
    "name": "번1동주민센터 화장실",
    "lat": 37.6377725,
    "lng": 127.030597,
    "address": "서울특별시 강북구 한천로 996 (번동, 번1동주민센터)"
  },
  {
    "name": "강북중학교 옆 공중화장실",
    "lat": 37.6447942,
    "lng": 127.027508,
    "address": "서울특별시 강북구 수유동 647-2"
  },
  {
    "name": "미아공동육아방",
    "lat": 37.63261,
    "lng": 127.0257,
    "address": "서울특별시 강북구 덕릉로 30길 49"
  },
  {
    "name": "수유시장",
    "lat": 37.6307808,
    "lng": 127.0229483,
    "address": "서울특별시 강북구 도봉로67길 18"
  },
  {
    "name": "삼양동종합복지센터",
    "lat": 37.622921,
    "lng": 127.018531,
    "address": "서울특별시 강북구 삼양로47길 9"
  },
  {
    "name": "샛강어린이공원 화장실",
    "lat": 37.6393401,
    "lng": 127.0329886,
    "address": "서울특별시 강북구 도봉로96다길 6 (번동)"
  },
  {
    "name": "현대오일뱅크(주)직영 번동셀프주유소 화장실",
    "lat": 37.6355872,
    "lng": 127.0330493,
    "address": "서울특별시 강북구 한천로 963 (번동)"
  },
  {
    "name": "벌말어린이공원 화장실",
    "lat": 37.6297108,
    "lng": 127.0398261,
    "address": "서울특별시 강북구 번동 235"
  },
  {
    "name": "장애인회관",
    "lat": 37.644789,
    "lng": 127.010503,
    "address": "서울특별시 강북구 인수봉로 291"
  },
  {
    "name": "인수파출소 화장실",
    "lat": 37.6394007,
    "lng": 127.0125722,
    "address": "서울특별시 강북구 인수봉로 227 (수유동, 인수파출소)"
  },
  {
    "name": "게이트볼장 앞 화장실",
    "lat": 37.6178374,
    "lng": 127.0326782,
    "address": "서울특별시 강북구 송중동 산25-52"
  },
  {
    "name": "강북문화정보도서관",
    "lat": 37.6252184,
    "lng": 127.0362995,
    "address": "서울특별시 강북구 오현로 145"
  },
  {
    "name": "풍양빌딩 화장실",
    "lat": 37.6211191,
    "lng": 127.0286947,
    "address": "서울특별시 강북구 도봉로136(미아동, 풍양빌딩)"
  },
  {
    "name": "인수동주민센터",
    "lat": 37.6414727,
    "lng": 127.01064,
    "address": "서울특별시 강북구 인수봉로 255"
  },
  {
    "name": "효성요양병원 화장실",
    "lat": 37.6220456,
    "lng": 127.0205114,
    "address": "서울특별시 강북구 삼양로 204 (미아동, 효성요양병원)"
  },
  {
    "name": "미아역 화장실",
    "lat": 37.6294541,
    "lng": 127.0247467,
    "address": "서울특별시 강북구 미아동 194-1"
  },
  {
    "name": "강북구가족센터",
    "lat": 37.637714,
    "lng": 127.0296,
    "address": "서울특별시 강북구 한천로129길 6"
  },
  {
    "name": "가든타워 개방화장실",
    "lat": 37.637027,
    "lng": 127.0251852,
    "address": "서울특별시 강북구 도봉로 328 (번동, 가든타워빌딩)"
  },
  {
    "name": "번동3단지 종합사회복지관 화장실",
    "lat": 37.6290408,
    "lng": 127.0418795,
    "address": "서울특별시 강북구 오현로208, 302동(번동, 제3단지아파트)"
  },
  {
    "name": "대성석유㈜ 신광주유소",
    "lat": 37.6464146,
    "lng": 127.0152692,
    "address": "서울특별시 강북구 삼양로 484 (수유동, GS칼텍스 신광주유소)"
  },
  {
    "name": "번동U-도서관",
    "lat": 37.6250903,
    "lng": 127.0334035,
    "address": "서울특별시 강북구 오현로21길 84"
  },
  {
    "name": "㈜미래아스팔트 덕릉로주유소",
    "lat": 37.6349996,
    "lng": 127.0312957,
    "address": "서울특별시 강북구 덕릉로 158 (번동, 차사랑주유소)"
  },
  {
    "name": "삼각산동주민센터 화장실",
    "lat": 37.6151877,
    "lng": 127.0207587,
    "address": "서울특별시 강북구 삼양로19길 34 (미아동, 삼각산동복합청사)"
  },
  {
    "name": "영락기도원 입구 화장실",
    "lat": 37.6372691,
    "lng": 126.9969894,
    "address": "서울특별시 강북구  수유동 산127-1"
  },
  {
    "name": "북서울꿈의숲(주차장)",
    "lat": 37.6217709,
    "lng": 127.0411741,
    "address": "서울특별시 강북구 월계로 173"
  },
  {
    "name": "솔샘역 화장실",
    "lat": 37.620262,
    "lng": 127.013042,
    "address": "서울특별시 강북구 미아동 1353-20"
  },
  {
    "name": "번동파출소 화장실",
    "lat": 37.63599,
    "lng": 127.0326008,
    "address": "서울특별시 강북구 한천로 969 (번동, 강북경찰서 번동파출소)"
  },
  {
    "name": "정보도서관 뒤 화장실",
    "lat": 37.6248249,
    "lng": 127.0355414,
    "address": "서울특별시 강북구 번동 산27-121"
  },
  {
    "name": "솔밭근린공원 공원화장실",
    "lat": 37.6529618,
    "lng": 127.0122387,
    "address": "서울특별시 강북구 삼양로 561, 솔밭공원 관리실및화장실 (우이동)"
  },
  {
    "name": "강북구청 내부 화장실",
    "lat": 37.6397767,
    "lng": 127.0255184,
    "address": "서울특별시 강북구 도봉로89길 13 (수유동, 강북구청)"
  },
  {
    "name": "번2동주민센터",
    "lat": 37.6322105,
    "lng": 127.0388226,
    "address": "서울특별시 강북구 한천로 897"
  },
  {
    "name": "트레지오",
    "lat": 37.6120562,
    "lng": 127.0307155,
    "address": "서울특별시 강북구 도봉로 34"
  },
  {
    "name": "우이동 교통광장 앞 화장실",
    "lat": 37.66449493,
    "lng": 127.0119091,
    "address": "서울특별시 강북구 우이동 265-18"
  },
  {
    "name": "강북구민운동장",
    "lat": 37.6295223,
    "lng": 127.0375228,
    "address": "서울특별시 강북구 오현로 187-25"
  },
  {
    "name": "시립강북노인종합복지관",
    "lat": 37.63575,
    "lng": 127.01873,
    "address": "서울특별시 강북구 삼양로92길 40"
  },
  {
    "name": "흰구름어린이공원 화장실",
    "lat": 37.6457256,
    "lng": 127.0204119,
    "address": "서울특별시 강북구 노해로23길 58, 수유2동 경로당 (수유동)"
  },
  {
    "name": "오동골프클럽",
    "lat": 37.6227904,
    "lng": 127.0366026,
    "address": "서울특별시 강북구 오현로 117"
  },
  {
    "name": "삼양역 화장실",
    "lat": 37.6259763,
    "lng": 127.0194053,
    "address": "서울특별시 강북구 미아동 797-4703"
  },
  {
    "name": "수유2동주민센터 화장실",
    "lat": 37.644637,
    "lng": 127.01988,
    "address": "서울특별시 강북구 한천로 1117 (수유동, 수유2동 주민센터)"
  },
  {
    "name": "가오리역 화장실",
    "lat": 37.6420459,
    "lng": 127.0166429,
    "address": "서울특별시 강북구 수유동 338-46"
  },
  {
    "name": "송중동주민센터 화장실",
    "lat": 37.6160871,
    "lng": 127.0337701,
    "address": "서울특별시 강북구 오패산로 162 (미아동, 송중동 주민센터)"
  },
  {
    "name": "삼양동주민센터",
    "lat": 37.6249939,
    "lng": 127.019855,
    "address": "서울특별시 강북구 솔매로 69(미아동)"
  },
  {
    "name": "수유2파출소 화장실",
    "lat": 37.6409113,
    "lng": 127.0171016,
    "address": "서울특별시 강북구 삼각산로 115 (수유동)"
  },
  {
    "name": "서울강북경찰서 별관 화장실",
    "lat": 37.6371974,
    "lng": 127.0273048,
    "address": "서울특별시 강북구 오패산로 406 (번동, 서울강북경찰서)"
  },
  {
    "name": "스마일 배드민턴장 화장실",
    "lat": 37.6198663,
    "lng": 127.035851,
    "address": "서울특별시 강북구 미아동 산25-55"
  },
  {
    "name": "강북메디컬센터 개방화장실",
    "lat": 37.6258469,
    "lng": 127.0268455,
    "address": "서울특별시 강북구 도봉로 190 (미아동, 비전빌딩)"
  },
  {
    "name": "오동근린공원 실내배드민턴장",
    "lat": 37.6330126,
    "lng": 127.0322173,
    "address": "서울특별시 강북구 덕릉로42길 49"
  },
  {
    "name": "번동성당 민간 개방화장실",
    "lat": 37.6345647,
    "lng": 127.0346175,
    "address": "서울특별시 강북구 번동 432-3"
  },
  {
    "name": "강북장애인복지관 행복관(별관)",
    "lat": 37.629043,
    "lng": 127.038723,
    "address": "서울특별시 강북구 오현로 187-6"
  },
  {
    "name": "수유일공원 화장실",
    "lat": 37.6319434,
    "lng": 127.0112795,
    "address": "서울특별시 강북구 수유1동 605-389"
  },
  {
    "name": "번남어린이공원 화장실",
    "lat": 37.6357796,
    "lng": 127.0249468,
    "address": "서울특별시 강북구 오패산로77길 41, 번남어린이공원 공중화장실 (번동)"
  },
  {
    "name": "씨엔에스유통㈜ 직영 미아셀프주유소",
    "lat": 37.6265292,
    "lng": 127.0265002,
    "address": "서울특별시 강북구 도봉로 200 (미아동, 삼양주유소)"
  },
  {
    "name": "㈜서울에너지 시민주유소",
    "lat": 37.6362022,
    "lng": 127.012822,
    "address": "서울특별시 강북구 인수봉로 185 (수유동)"
  },
  {
    "name": "교보생명 개방화장실",
    "lat": 37.6384713,
    "lng": 127.0265461,
    "address": "서울특별시 강북구 도봉로 348 (번동, 교보생명빌딩)"
  },
  {
    "name": "삼양교회 개방화장실",
    "lat": 37.6210153,
    "lng": 127.0180635,
    "address": "서울특별시 강북구 솔샘로 47길 21"
  },
  {
    "name": "오현어린이공원 화장실",
    "lat": 37.6247092,
    "lng": 127.0471142,
    "address": "서울특별시 강북구 한천로105길 23 (번동, 번동1단지주공아파트)"
  },
  {
    "name": "벌리교 공중화장실",
    "lat": 37.6283534,
    "lng": 127.0448484,
    "address": "서울특별시 강북구 번동 266"
  },
  {
    "name": "송천동주민센터 화장실",
    "lat": 37.6182793,
    "lng": 127.0238525,
    "address": "서울특별시 강북구 솔샘로 284 (미아동, 송천동 주민센터)"
  },
  {
    "name": "대성빌딩",
    "lat": 37.6524,
    "lng": 127.0503,
    "address": "서울특별시 도봉구 노해로379"
  },
  {
    "name": "창동역(4호선)",
    "lat": 37.6559,
    "lng": 127.0134,
    "address": "서울특별시 도봉구 삼양로 592"
  },
  {
    "name": "방학1동 주민센터",
    "lat": 37.6642,
    "lng": 127.0408,
    "address": "서울특별시 도봉구 방학로2길 27"
  },
  {
    "name": "성민교회",
    "lat": 37.65993,
    "lng": 127.0337,
    "address": "서울특별시 도봉구 해등로26길 20-1"
  },
  {
    "name": "학마을도서관",
    "lat": 37.66221,
    "lng": 127.0276,
    "address": "서울특별시 도봉구 시루봉로 128"
  },
  {
    "name": "둘리뮤지엄(둘리도서관)",
    "lat": 37.65212,
    "lng": 127.0278,
    "address": "서울특별시 도봉구 시루봉로1길 6"
  },
  {
    "name": "대성산업(주) 신창주유소",
    "lat": 37.64121,
    "lng": 127.0402,
    "address": "서울특별시 도봉구 덕릉로 267"
  },
  {
    "name": "한영가스충전소",
    "lat": 37.66056,
    "lng": 127.0415,
    "address": "서울특별시 도봉구 도봉로627"
  },
  {
    "name": "창동청소년문화의집",
    "lat": 37.63811,
    "lng": 127.0427,
    "address": "서울특별시 도봉구 덕릉로62길 89"
  },
  {
    "name": "우이천변1(수산아파트)",
    "lat": 37.6396,
    "lng": 127.034,
    "address": "서울특별시 도봉구 창동 737-5"
  },
  {
    "name": "도봉실버센터",
    "lat": 37.66289,
    "lng": 127.027,
    "address": "서울특별시 도봉구 시루봉로 133"
  },
  {
    "name": "신도봉시장",
    "lat": 37.67005,
    "lng": 127.041,
    "address": "서울특별시 도봉구 도당로27길 60"
  },
  {
    "name": "중랑천변2(상계교)",
    "lat": 37.6613,
    "lng": 127.0508,
    "address": "서울특별시 도봉구 방학동 721"
  },
  {
    "name": "초안산 붕붕도서관",
    "lat": 37.64477,
    "lng": 127.0491,
    "address": "서울특별시 도봉구 창동 428"
  },
  {
    "name": "무수골도서관",
    "lat": 37.68283,
    "lng": 127.0428,
    "address": "서울특별시 도봉구 도봉로175길 10"
  },
  {
    "name": "김수영문학관",
    "lat": 37.65993,
    "lng": 127.0237,
    "address": "서울특별시 도봉구 해등로32길 80"
  },
  {
    "name": "중랑천변4(녹천교)",
    "lat": 37.6429,
    "lng": 127.0545,
    "address": "서울특별시 도봉구 창동 756-164"
  },
  {
    "name": "창동종합사회복지관",
    "lat": 37.64472,
    "lng": 127.0456,
    "address": "서울특별시 도봉구 덕릉로 329"
  },
  {
    "name": "청심천배드민턴장",
    "lat": 37.65516,
    "lng": 127.0346,
    "address": "서울특별시 도봉구 노해로57길 94"
  },
  {
    "name": "도봉구청사 화장실",
    "lat": 37.669,
    "lng": 127.047,
    "address": "서울특별시 도봉구 마들로 656"
  },
  {
    "name": "뱃골어린이공원",
    "lat": 37.64683,
    "lng": 127.045,
    "address": "서울특별시 도봉구 해등로 32-18"
  },
  {
    "name": "㈜자연에너지 햇살주유소",
    "lat": 37.66706,
    "lng": 127.042,
    "address": "서울특별시 도봉구 방학로 142"
  },
  {
    "name": "햇빛요양보호사교육원",
    "lat": 37.64728,
    "lng": 127.0335,
    "address": "서울특별시 도봉구 도봉로463-1"
  },
  {
    "name": "우이천변3(한일병원)",
    "lat": 37.6439,
    "lng": 127.0298,
    "address": "서울특별시 도봉구 쌍문동 83-10"
  },
  {
    "name": "창3동 주민센터",
    "lat": 37.63811,
    "lng": 127.0427,
    "address": "서울특별시 도봉구 덕릉로62길 89"
  },
  {
    "name": "극동유화㈜대안주유소",
    "lat": 37.66155,
    "lng": 127.0473,
    "address": "서울특별시 도봉구 마들로 574"
  },
  {
    "name": "쌍문채움도서관",
    "lat": 37.64697,
    "lng": 127.0261,
    "address": "서울특별시 도봉구 우이천로 340"
  },
  {
    "name": "도봉월드",
    "lat": 37.66808,
    "lng": 127.0464,
    "address": "서울특별시 도봉구 마들로650"
  },
  {
    "name": "지에스칼텍스(주)방학동주유소",
    "lat": 37.66233,
    "lng": 127.031,
    "address": "서울특별시 도봉구 방학로 186"
  },
  {
    "name": "창동19단지종합상가",
    "lat": 37.65025,
    "lng": 127.0516,
    "address": "서울특별시 도봉구 노해로70길 46"
  },
  {
    "name": "창5동 주민센터",
    "lat": 37.65637,
    "lng": 127.0435,
    "address": "서울특별시 도봉구 도봉로136나길 20"
  },
  {
    "name": "방학3동 주민센터",
    "lat": 37.65915,
    "lng": 127.0279,
    "address": "서울특별시 도봉구 시루봉로 94"
  },
  {
    "name": "방학2동 주민센터",
    "lat": 37.66829,
    "lng": 127.035,
    "address": "서울특별시 도봉구 시루봉로 226"
  },
  {
    "name": "쌍문동청소년문화의집",
    "lat": 37.65428,
    "lng": 127.0289,
    "address": "서울특별시 도봉구 시루봉로2길 34"
  },
  {
    "name": "세정빌딩",
    "lat": 37.65305,
    "lng": 127.0507,
    "address": "서울특별시 도봉구 노해로69길 15"
  },
  {
    "name": "방아골종합사회복지관",
    "lat": 37.66924,
    "lng": 127.0326,
    "address": "서울특별시 도봉구 시루봉로17길 42"
  },
  {
    "name": "홈플러스㈜ 방학점",
    "lat": 37.66492,
    "lng": 127.043,
    "address": "서울특별시 도봉구 도봉로 678"
  },
  {
    "name": "도봉산역(7호선) 화장실",
    "lat": 37.68913,
    "lng": 127.0464,
    "address": "서울특별시 도봉구 도봉로 964-40"
  },
  {
    "name": "도봉 기적의 도서관",
    "lat": 37.6808,
    "lng": 127.0502,
    "address": "서울특별시 도봉구 마들로 797"
  },
  {
    "name": "하나빌딩",
    "lat": 37.65223,
    "lng": 127.0496,
    "address": "서울특별시 도봉구 노해로67길 10"
  },
  {
    "name": "쌍문2동 주민센터",
    "lat": 37.65995,
    "lng": 127.0398,
    "address": "서울특별시 도봉구 도봉로137길 21"
  },
  {
    "name": "창1동 주민센터",
    "lat": 37.64837,
    "lng": 127.0438,
    "address": "서울특별시 도봉구 해등로 46"
  },
  {
    "name": "장수배드민턴장",
    "lat": 37.66924,
    "lng": 127.0285,
    "address": "서울특별시 도봉구 시루봉로15길 106"
  },
  {
    "name": "시립도봉노인복지관",
    "lat": 37.65883,
    "lng": 127.0359,
    "address": "서울특별시 도봉구 도당로2길 12-13"
  },
  {
    "name": "중랑천변3(다락원)",
    "lat": 37.6915,
    "lng": 127.049,
    "address": "서울특별시 도봉구 도봉동 2-6"
  },
  {
    "name": "쌍문3동 주민센터",
    "lat": 37.64894,
    "lng": 127.0278,
    "address": "서울특별시 도봉구 노해로44길 9"
  },
  {
    "name": "도봉1동 주민센터",
    "lat": 37.678,
    "lng": 127.0435,
    "address": "서울특별시 도봉구 도봉로169나길 22"
  },
  {
    "name": "김근태기념도서관",
    "lat": 37.68766,
    "lng": 127.044,
    "address": "서울특별시 도봉구 도봉산길 14"
  },
  {
    "name": "이케이에너지 주식회사",
    "lat": 37.6884,
    "lng": 127.0453,
    "address": "서울특별시 도봉구 도봉로 941"
  },
  {
    "name": "㈜이마트 창동점",
    "lat": 37.65161,
    "lng": 127.0466,
    "address": "서울특별시 도봉구 노해로65길 4"
  },
  {
    "name": "오복주유소",
    "lat": 37.66231,
    "lng": 127.0473,
    "address": "서울특별시 도봉구 방학로 43"
  },
  {
    "name": "도봉여성센터",
    "lat": 37.66317,
    "lng": 127.0301,
    "address": "서울특별시 도봉구 방학동 306-10"
  },
  {
    "name": "대한반호프빌딩",
    "lat": 37.65223,
    "lng": 127.0496,
    "address": "서울특별시 도봉구 노해로67길 10"
  },
  {
    "name": "다락원체육공원",
    "lat": 37.6907,
    "lng": 127.0464,
    "address": "서울특별시 도봉구 마들로 932"
  },
  {
    "name": "월천근린공원",
    "lat": 37.64736,
    "lng": 127.0512,
    "address": "서울특별시 도봉구 노해로70길 86"
  },
  {
    "name": "도봉2동 주민센터",
    "lat": 37.66966,
    "lng": 127.0464,
    "address": "서울특별시 도봉구 마들로 668"
  },
  {
    "name": "한이에너지(주)쌍문주유소",
    "lat": 37.65403,
    "lng": 127.0376,
    "address": "서울특별시 도봉구 도봉로 547"
  },
  {
    "name": "방학동어르신복지관",
    "lat": 37.67058,
    "lng": 127.0322,
    "address": "서울특별시 도봉구 시루봉로15라길 59-9"
  },
  {
    "name": "창2동 주민센터",
    "lat": 37.64149,
    "lng": 127.0355,
    "address": "서울특별시 도봉구 덕릉로59길 73-3"
  },
  {
    "name": "창4동 주민센터",
    "lat": 37.65229,
    "lng": 127.0515,
    "address": "서울특별시 도봉구 노해로 390"
  },
  {
    "name": "미륭프라자",
    "lat": 37.66225,
    "lng": 127.0304,
    "address": "서울특별시 도봉구 방학로196"
  },
  {
    "name": "신동아프라자",
    "lat": 37.66161,
    "lng": 127.0272,
    "address": "서울특별시 도봉구 방학로 223"
  },
  {
    "name": "구도일주유소 도봉",
    "lat": 37.66745,
    "lng": 127.0434,
    "address": "서울특별시 도봉구 도봉로 706"
  },
  {
    "name": "밤골어린이공원",
    "lat": 37.64881,
    "lng": 127.0455,
    "address": "서울특별시 도봉구 해등로4길 38"
  },
  {
    "name": "(사)도봉한신쇼핑상가",
    "lat": 37.68569,
    "lng": 127.0493,
    "address": "서울특별시 도봉구 도봉로180나길 41"
  },
  {
    "name": "쌍문1동 주민센터",
    "lat": 37.66246,
    "lng": 127.026,
    "address": "서울특별시 도봉구 노해로 147"
  },
  {
    "name": "발바닥공원",
    "lat": 37.65954,
    "lng": 127.0295,
    "address": "서울특별시 도봉구 시루봉로6길 33"
  },
  {
    "name": "무수골마을입구",
    "lat": 37.67713,
    "lng": 127.0304,
    "address": "서울특별시 도봉구 도봉로169길 302"
  },
  {
    "name": "도봉제일주유소",
    "lat": 37.67446,
    "lng": 127.044,
    "address": "서울특별시 도봉구 도봉로783"
  },
  {
    "name": "원당마을한옥도서관",
    "lat": 37.66029,
    "lng": 127.0217,
    "address": "서울특별시 도봉구 해등로32가길 17"
  },
  {
    "name": "신동아프라자",
    "lat": 37.66161,
    "lng": 127.0272,
    "address": "서울특별시 도봉구 방학로223"
  },
  {
    "name": "한일빌딩",
    "lat": 37.67408,
    "lng": 127.0448,
    "address": "서울특별시 도봉구 도봉로152가길 102"
  },
  {
    "name": "도봉산역(1호선) 화장실",
    "lat": 37.68902,
    "lng": 127.0458,
    "address": "서울특별시 도봉구 도봉로 948"
  },
  {
    "name": "친환경나눔텃밭",
    "lat": 37.64997,
    "lng": 127.0212,
    "address": "서울특별시 도봉구 우이천로 394"
  },
  {
    "name": "도봉문화정보도서관",
    "lat": 37.6443,
    "lng": 127.0441,
    "address": "서울특별시 도봉구 덕릉로 315"
  },
  {
    "name": "쌍문동어르신복지관",
    "lat": 37.64828,
    "lng": 127.0238,
    "address": "서울특별시 도봉구 우이천로 363"
  },
  {
    "name": "도봉청소년누리터위드",
    "lat": 37.64067,
    "lng": 127.0386,
    "address": "서울특별시 도봉구 덕릉로59길 18"
  },
  {
    "name": "쌍문4동 주민센터",
    "lat": 37.65643,
    "lng": 127.0283,
    "address": "서울특별시 도봉구 시루봉로 62-7"
  },
  {
    "name": "국제배드민턴장",
    "lat": 37.67631,
    "lng": 127.0429,
    "address": "서울특별시 도봉구 도봉로163길 29"
  },
  {
    "name": "도봉역 화장실",
    "lat": 37.68038,
    "lng": 127.0457,
    "address": "서울특별시 도봉구 도봉로170길 2"
  },
  {
    "name": "에이치디현대오일뱅크(주)영신주유소",
    "lat": 37.66246,
    "lng": 127.0354,
    "address": "서울특별시 도봉구 방학로 151"
  },
  {
    "name": "도봉청소년독서실",
    "lat": 37.66412,
    "lng": 127.0462,
    "address": "서울특별시 도봉구 마들로 605"
  },
  {
    "name": "도봉서원종합사회복지관",
    "lat": 37.66966,
    "lng": 127.0464,
    "address": "서울특별시 도봉구 마들로 668"
  },
  {
    "name": "노원교주유소",
    "lat": 37.67899,
    "lng": 127.0496,
    "address": "서울특별시 도봉구 마들로 776"
  },
  {
    "name": "도봉한양프라자",
    "lat": 37.65648,
    "lng": 127.0329,
    "address": "서울특별시 도봉구 마들로724"
  },
  {
    "name": "함석헌기념관",
    "lat": 37.65291,
    "lng": 127.0348,
    "address": "서울특별시 도봉구 도봉로123길 33-6"
  },
  {
    "name": "쌍문셀프주유소",
    "lat": 37.64905,
    "lng": 127.0268,
    "address": "서울특별시 도봉구 노해로 161"
  },
  {
    "name": "도봉구민회관",
    "lat": 37.65417,
    "lng": 127.0383,
    "address": "서울특별시 도봉구 도봉로 552"
  },
  {
    "name": "동일석유(주) 창동주유소",
    "lat": 37.64466,
    "lng": 127.0326,
    "address": "서울특별시 도봉구 도봉로 434"
  },
  {
    "name": "중랑천변1(노원교)",
    "lat": 37.68,
    "lng": 127.0505,
    "address": "서울특별시 도봉구 도봉동 86-1"
  },
  {
    "name": "창동문화체육센터",
    "lat": 37.65806,
    "lng": 127.0501,
    "address": "서울특별시 도봉구 노해로69길 132"
  },
  {
    "name": "우림빌딩",
    "lat": 37.65303,
    "lng": 127.0463,
    "address": "서울특별시 도봉구 노해로63길 79"
  },
  {
    "name": "율곡약수터",
    "lat": 37.673,
    "lng": 127.0395,
    "address": "서울특별시 도봉구 시루봉로23나길 37"
  },
  {
    "name": "구도일주유소 파크빌",
    "lat": 37.64682,
    "lng": 127.0394,
    "address": "서울특별시 도봉구 해등로3길 86"
  },
  {
    "name": "동산빌딩",
    "lat": 37.65397,
    "lng": 127.0517,
    "address": "서울특별시 도봉구 마들로11길 25"
  },
  {
    "name": "도봉구보건소",
    "lat": 37.65812,
    "lng": 127.0385,
    "address": "서울특별시 도봉구 방학로3길 117"
  },
  {
    "name": "럭키프라자상가",
    "lat": 37.67991,
    "lng": 127.0439,
    "address": "서울특별시 도봉구 도봉로169길 31"
  },
  {
    "name": "삼환플라자",
    "lat": 37.65635,
    "lng": 127.039,
    "address": "서울특별시 도봉구 도봉로575"
  },
  {
    "name": "창동역동측",
    "lat": 37.65338,
    "lng": 127.0489,
    "address": "서울특별시 도봉구 마들로11길 75-1"
  },
  {
    "name": "쌍문역(4호선) 화장실",
    "lat": 37.64885,
    "lng": 127.0349,
    "address": "서울특별시 도봉구 도봉로 지하 486-1"
  },
  {
    "name": "신방학초교 뒤",
    "lat": 37.66064,
    "lng": 127.0187,
    "address": "서울특별시 도봉구 해등로32가길 104"
  },
  {
    "name": "새동네어울누리",
    "lat": 37.68881,
    "lng": 127.0427,
    "address": "서울특별시 도봉구 도봉산4길 28-3"
  },
  {
    "name": "녹천역 화장실",
    "lat": 37.64585,
    "lng": 127.0507,
    "address": "서울특별시 도봉구 덕릉로 376"
  },
  {
    "name": "대우상가",
    "lat": 37.64263,
    "lng": 127.0372,
    "address": "서울특별시 도봉구 덕릉로63가길 61"
  },
  {
    "name": "둘리쌍문공원 세심천",
    "lat": 37.65653,
    "lng": 127.0245,
    "address": "서울특별시 도봉구 시루봉로 65-59"
  },
  {
    "name": "쌍문동청소년랜드",
    "lat": 37.6472,
    "lng": 127.026,
    "address": "서울특별시 도봉구 노해로 140"
  },
  {
    "name": "도봉산역(7호선) 화장실",
    "lat": 37.6891,
    "lng": 127.0464,
    "address": "서울특별시 도봉구 도봉로 964-40"
  },
  {
    "name": "삼미상사(주) 북부주유소",
    "lat": 37.64514,
    "lng": 127.0323,
    "address": "서울특별시 도봉구 도봉로 437"
  },
  {
    "name": "초안산근린공원",
    "lat": 37.64747,
    "lng": 127.0413,
    "address": "서울특별시 도봉구 해등로3길 48-11"
  },
  {
    "name": "도봉아이나라도서관",
    "lat": 37.65914,
    "lng": 127.0496,
    "address": "서울특별시 도봉구 노해로69길 151"
  },
  {
    "name": "도봉동어르신복지관",
    "lat": 37.682081,
    "lng": 127.0434,
    "address": "서울특별시 도봉구 도봉로169가길 52"
  },
  {
    "name": "간송옛집",
    "lat": 37.66487,
    "lng": 127.0281,
    "address": "서울특별시 도봉구 시루봉로 149-18"
  },
  {
    "name": "힐사이드배드민턴장",
    "lat": 37.67653,
    "lng": 127.0431,
    "address": "서울특별시 도봉구 도봉로163길 30"
  },
  {
    "name": "지에스칼텍스(주)도봉주유소",
    "lat": 37.68443,
    "lng": 127.0457,
    "address": "서울특별시 도봉구 도봉로 895"
  },
  {
    "name": "우이천변4(신화초교)",
    "lat": 37.6317,
    "lng": 127.0413,
    "address": "서울특별시 도봉구 창동 511-3"
  },
  {
    "name": "도봉동청소년문화의집",
    "lat": 37.6843,
    "lng": 127.0468,
    "address": "서울특별시 도봉구 도봉로180나길 33-61"
  },
  {
    "name": "다모아빌딩",
    "lat": 37.6528,
    "lng": 127.0489,
    "address": "서울특별시 도봉구 마들로11가길 12"
  },
  {
    "name": "방학역 화장실",
    "lat": 37.66634,
    "lng": 127.0444,
    "address": "서울특별시 도봉구 도봉로150다길 3"
  },
  {
    "name": "우이천변2(덕수교)",
    "lat": 37.6488,
    "lng": 127.018,
    "address": "서울특별시 도봉구 쌍문동 417-11"
  },
  {
    "name": "중랑천변5(창동교)",
    "lat": 37.6534,
    "lng": 127.0536,
    "address": "서울특별시 도봉구 창동 11-1"
  },
  {
    "name": "도봉산입구상가연합회",
    "lat": 37.6863,
    "lng": 127.0375,
    "address": "서울특별시 도봉구 도봉산길65-11"
  },
  {
    "name": "서울과학기술대학교 종합스타디움(동아리관)",
    "lat": 37.6316684,
    "lng": 127.0774813,
    "address": "서울특별시 노원구 공릉로 232"
  },
  {
    "name": "서울과학기술대학교 무궁관",
    "lat": 37.6316684,
    "lng": 127.0774813,
    "address": "서울특별시 노원구 공릉로 232"
  },